"locator_domain","location_name","street_address","city","state","zip","country_code","store_number","phone","location_type","latitude","longitude","hours_of_operation"
"https://www.bigotires.com","1201 S Central Ave","1201 S Central Ave","Glendale","CA","91204","US","27100002","818  548 1788","Big O Tires, your auto service experts","34.132126","-118.257822","Mon:08:00 AM-06:00 PMTue:08:00 AM-06:00 PMWed:08:00 AM-06:00 PMThu:08:00 AM-06:00 PMFri:08:00 AM-06:00 PMSat:08:00 AM-05:00 PMSun:09:00 AM-04:00 PM"
"https://www.bigotires.com","11470 Gateway Blvd","11470 Gateway Blvd","Los Angeles","CA","90064","US","26900143","3104794899","Big O Tires, your auto service experts","34.033201","-118.441374","Mon:08:00 AM-06:00 PMTue:08:00 AM-06:00 PMWed:08:00 AM-06:00 PMThu:08:00 AM-06:00 PMFri:08:00 AM-06:00 PMSat:08:00 AM-05:00 PMSun:09:00 AM-04:00 PM"
"https://www.bigotires.com","13920 Valley View Ave","13920 Valley View Ave","La Mirada","CA","90638","US","26900165","5629465855","Big O Tires, your auto service experts","33.90384","-118.02844","Mon:08:00 AM-06:00 PMTue:08:00 AM-06:00 PMWed:08:00 AM-06:00 PMThu:08:00 AM-06:00 PMFri:08:00 AM-06:00 PMSat:08:00 AM-05:00 PMSun:09:00 AM-04:00 PM"
"https://www.bigotires.com","501 S Vincent Ave","501 S Vincent Ave","West Covina","CA","91790","US","26900173","6263370100","Big O Tires, your auto service experts","34.06669","-117.92805","Mon:07:00 AM-06:00 PMTue:07:00 AM-06:00 PMWed:07:00 AM-06:00 PMThu:07:00 AM-06:00 PMFri:07:00 AM-06:00 PMSat:08:00 AM-05:00 PMSun:09:00 AM-04:00 PM9/2: Closed"
"https://www.bigotires.com","1181 E Pacific Coast Hwy","1181 E Pacific Coast Hwy","Long Beach","CA","90806","US","26900147","562  489 2000","Big O Tires, your auto service experts","33.79013","-118.176762","Mon:08:00 AM-06:00 PMTue:08:00 AM-06:00 PMWed:08:00 AM-06:00 PMThu:08:00 AM-06:00 PMFri:08:00 AM-06:00 PMSat:08:00 AM-06:00 PMSun:09:00 AM-04:00 PM9/2: Closed"
"https://www.bigotires.com","18440 Ventura Blvd","18440 Ventura Blvd","Tarzana","CA","91356","US","26900141","8188818414","Big O Tires, your auto service experts","34.168021","-118.534788","Mon:07:30 AM-06:00 PMTue:07:30 AM-06:00 PMWed:07:30 AM-06:00 PMThu:07:30 AM-06:00 PMFri:07:30 AM-06:00 PMSat:07:30 AM-05:00 PMSun: Closed"
"https://www.bigotires.com","6052 Cerritos Ave","6052 Cerritos Ave","Cypress","CA","90630","US","26900164","7148266334","Big O Tires, your auto service experts","33.80958","-118.026387","Mon:07:30 AM-06:00 PMTue:07:30 AM-06:00 PMWed:07:30 AM-06:00 PMThu:07:30 AM-06:00 PMFri:07:30 AM-06:00 PMSat:07:30 AM-05:00 PMSun: Closed"
"https://www.bigotires.com","210 N Brea Blvd","210 N Brea Blvd","Brea","CA","92821","US","26900134","7145297602","Big O Tires, your auto service experts","33.921711","-117.897165","Mon:08:00 AM-06:00 PMTue:08:00 AM-06:00 PMWed:08:00 AM-06:00 PMThu:08:00 AM-06:00 PMFri:08:00 AM-06:00 PMSat:08:00 AM-05:00 PMSun:09:00 AM-04:00 PM"
"https://www.bigotires.com","21311 Vanowen St","21311 Vanowen St","Canoga Park","CA","91303","US","26900163","8188849497","Big O Tires, your auto service experts","34.194142","-118.596422","Mon:08:00 AM-06:00 PMTue:08:00 AM-06:00 PMWed:08:00 AM-06:00 PMThu:08:00 AM-06:00 PMFri:08:00 AM-06:00 PMSat:08:00 AM-05:00 PMSun:10:00 AM-04:00 PM9/2: Closed"
"https://www.bigotires.com","2021 E La Palma Road","2021 E La Palma Road","Anaheim","CA","92806","US","26900174","7145020644","Big O Tires, your auto service experts","33.847599","-117.887124","Mon:07:30 AM-06:00 PMTue:07:30 AM-06:00 PMWed:07:30 AM-06:00 PMThu:07:30 AM-06:00 PMFri:07:30 AM-06:00 PMSat:07:30 AM-05:00 PMSun: Closed"
"https://www.bigotires.com","17111 Imperial Hwy","17111 Imperial Hwy","Yorba Linda","CA","92886","US","26900136","714  579 7966","Big O Tires, your auto service experts","33.901305","-117.834855","Mon:08:00 AM-06:00 PMTue:08:00 AM-06:00 PMWed:08:00 AM-06:00 PMThu:08:00 AM-06:00 PMFri:08:00 AM-06:00 PMSat:08:00 AM-05:00 PMSun:09:00 AM-04:00 PM"
"https://www.bigotires.com","1825 E Katella Ave","1825 E Katella Ave","Orange","CA","92867","US","26900145","714  538 0016","Big O Tires, your auto service experts","33.80976","-117.834166","Mon:07:00 AM-07:00 PMTue:07:00 AM-07:00 PMWed:07:00 AM-07:00 PMThu:07:00 AM-07:00 PMFri:07:00 AM-07:00 PMSat:07:00 AM-07:00 PMSun:08:00 AM-06:00 PM9/2: Closed"
"https://www.bigotires.com","19411 Beach Blvd","19411 Beach Blvd","Huntington Beach","CA","92648","US","26900150","714  536 7571","Big O Tires, your auto service experts","33.680486","-117.989127","Mon:07:00 AM-06:00 PMTue:07:00 AM-06:00 PMWed:07:00 AM-06:00 PMThu:07:00 AM-06:00 PMFri:07:00 AM-06:00 PMSat:07:00 AM-06:00 PMSun:09:00 AM-04:00 PM9/2: Closed"
"https://www.bigotires.com","14135 Pipeline Ave","14135 Pipeline Ave","Chino","CA","91710","US","26900158","909 287 1739","Big O Tires, your auto service experts","33.996195","-117.714717","Mon:07:00 AM-06:00 PMTue:07:00 AM-06:00 PMWed:07:00 AM-06:00 PMThu:07:00 AM-06:00 PMFri:07:00 AM-06:00 PMSat:07:00 AM-06:00 PMSun:09:00 AM-04:00 PM9/2: Closed"
"https://www.bigotires.com","23510 Valencia Blvd","23510 Valencia Blvd","Santa Clarita","CA","91355","US","26900155","6612597498","Big O Tires, your auto service experts","34.419673","-118.547381","Mon:08:00 AM-06:00 PMTue:08:00 AM-06:00 PMWed:08:00 AM-06:00 PMThu:08:00 AM-06:00 PMFri:08:00 AM-06:00 PMSat:08:00 AM-05:00 PMSun:10:00 AM-04:00 PM"
"https://www.bigotires.com","3365 S Bristol St","3365 S Bristol St","Santa Ana","CA","92704","US","26900152","714  545 2879","Big O Tires, your auto service experts","33.700265","-117.884259","Mon:07:00 AM-06:00 PMTue:07:00 AM-06:00 PMWed:07:00 AM-06:00 PMThu:07:00 AM-06:00 PMFri:07:00 AM-06:00 PMSat:07:00 AM-06:00 PMSun:09:00 AM-04:00 PM9/2: Closed"
"https://www.bigotires.com","131 E 1st St","131 E 1st St","Tustin","CA","92780","US","26900146","714  544 9431","Big O Tires, your auto service experts","33.746006","-117.823263","Mon:07:00 AM-06:00 PMTue:07:00 AM-06:00 PMWed:07:00 AM-06:00 PMThu:07:00 AM-06:00 PMFri:07:00 AM-06:00 PMSat:07:00 AM-06:00 PMSun:09:00 AM-04:00 PM9/2: Closed"
"https://www.bigotires.com","322 E 17th St","322 E 17th St","Costa Mesa","CA","92627","US","26900153","949  642 4131","Big O Tires, your auto service experts","33.63271","-117.914308","Mon:07:00 AM-06:00 PMTue:07:00 AM-06:00 PMWed:07:00 AM-06:00 PMThu:07:00 AM-06:00 PMFri:07:00 AM-06:00 PMSat:07:00 AM-06:00 PMSun:09:00 AM-04:00 PM9/2: Closed"
"https://www.bigotires.com","8850 Archibald Ave","8850 Archibald Ave","Rancho Cucamonga","CA","91730","US","26900168","9099480111","Big O Tires, your auto service experts","34.092909","-117.593854","Mon:08:00 AM-06:00 PMTue:08:00 AM-06:00 PMWed:08:00 AM-06:00 PMThu:08:00 AM-06:00 PMFri:08:00 AM-06:00 PMSat:07:00 AM-04:00 PMSun:09:00 AM-03:00 PM7/4: Closed"
"https://www.bigotires.com","1002 W 6th St","1002 W 6th St","Corona","CA","92882","US","26900159","951  735 2430","Big O Tires, your auto service experts","33.876641","-117.580155","Mon:07:00 AM-06:00 PMTue:07:00 AM-06:00 PMWed:07:00 AM-06:00 PMThu:07:00 AM-06:00 PMFri:07:00 AM-06:00 PMSat:07:00 AM-06:00 PMSun:09:00 AM-04:00 PM9/2: Closed"
"https://www.bigotires.com","8767 Irvine Center Dr","8767 Irvine Center Dr","Irvine","CA","92618","US","26900156","949  585 9022","Big O Tires, your auto service experts","33.641693","-117.742419","Mon:07:00 AM-06:00 PMTue:07:00 AM-06:00 PMWed:07:00 AM-06:00 PMThu:07:00 AM-06:00 PMFri:07:00 AM-06:00 PMSat:07:00 AM-06:00 PMSun:09:00 AM-04:00 PM9/2: Closed"
"https://www.bigotires.com","20742 Lake Forest Unit Ce","20742 Lake Forest Unit Ce","Lake Forest","CA","92630","US","26900151","949  462 9088","Big O Tires, your auto service experts","33.661213","-117.668145","Mon:07:00 AM-06:00 PMTue:07:00 AM-06:00 PMWed:07:00 AM-06:00 PMThu:07:00 AM-06:00 PMFri:07:00 AM-06:00 PMSat:07:00 AM-06:00 PMSun:09:00 AM-04:00 PM9/2: Closed"
"https://www.bigotires.com","27812 Aliso Creek Rd Ste E100","27812 Aliso Creek Rd Ste E100","Aliso Viejo","CA","92656","US","26900154","949  362 4225","Big O Tires, your auto service experts","33.558501","-117.724077","Mon:07:00 AM-06:00 PMTue:07:00 AM-06:00 PMWed:07:00 AM-06:00 PMThu:07:00 AM-06:00 PMFri:07:00 AM-06:00 PMSat:07:00 AM-06:00 PMSun:09:00 AM-04:00 PM9/2: Closed"
"https://www.bigotires.com","927 N El Camino Real","927 N El Camino Real","San Clemente","CA","92672","US","26900162","949  492 5543","Big O Tires, your auto service experts","33.43121","-117.620581","Mon:07:30 AM-06:00 PMTue:07:30 AM-06:00 PMWed:07:30 AM-06:00 PMThu:07:30 AM-06:00 PMFri:07:30 AM-06:00 PMSat:07:30 AM-06:00 PMSun:09:00 AM-04:00 PM7/4: Closed"
"https://www.bigotires.com","23930 Sunnymead Blvd, Ste D","23930 Sunnymead Blvd, Ste D","Moreno Valley","CA","92553","US","26900139","9512428300","Big O Tires, your auto service experts","33.939347","-117.24517","Mon:08:00 AM-06:00 PMTue:08:00 AM-06:00 PMWed:08:00 AM-06:00 PMThu:08:00 AM-06:00 PMFri:08:00 AM-06:00 PMSat:08:00 AM-05:00 PMSun: Closed"
"https://www.bigotires.com","150 Campbell St Ste A","150 Campbell St Ste A","Lake Elsinore","CA","92530","US","26900157","9512453555","Big O Tires, your auto service experts","33.65632","-117.299144","Mon:08:00 AM-05:00 PMTue:08:00 AM-05:00 PMWed:08:00 AM-05:00 PMThu:08:00 AM-05:00 PMFri:08:00 AM-05:00 PMSat:08:00 AM-04:00 PMSun: Closed"
"https://www.bigotires.com","40420 California Oaks Rd","40420 California Oaks Rd","Murrieta","CA","92562","US","26900167","951  600 0160","Big O Tires, your auto service experts","33.577386","-117.200322","Mon:07:00 AM-06:00 PMTue:07:00 AM-06:00 PMWed:07:00 AM-06:00 PMThu:07:00 AM-06:00 PMFri:07:00 AM-06:00 PMSat:07:00 AM-06:00 PMSun:09:00 AM-04:00 PM"
"https://www.bigotires.com","40525 Winchester Road","40525 Winchester Road","Temecula","CA","92591","US","26900166","9512969070","Big O Tires, your auto service experts","33.529828","-117.153714","Mon:07:00 AM-06:00 PMTue:07:00 AM-06:00 PMWed:07:00 AM-06:00 PMThu:07:00 AM-06:00 PMFri:07:00 AM-06:00 PMSat:07:00 AM-06:00 PMSun:09:00 AM-04:00 PM"
"https://www.bigotires.com","2615 State St","2615 State St","Carlsbad","CA","92008","US","26900149","7607205212","Big O Tires, your auto service experts","33.163581","-117.352349","Mon:07:00 AM-05:30 PMTue:07:00 AM-05:30 PMWed:07:00 AM-05:30 PMThu:07:00 AM-05:30 PMFri:07:00 AM-05:30 PMSat:07:00 AM-05:00 PMSun: Closed9/2: Closed"
"https://www.bigotires.com","6911 White Ln","6911 White Ln","Bakersfield","CA","93309","US","26900169","661  827 9888","Big O Tires, your auto service experts","35.317614","-119.079536","Mon:07:30 AM-07:00 PMTue:07:30 AM-07:00 PMWed:07:30 AM-07:00 PMThu:07:30 AM-07:00 PMFri:07:30 AM-07:00 PMSat:07:30 AM-07:00 PMSun:08:00 AM-04:00 PM9/2: Closed"
"https://www.bigotires.com","2502 Ming Ave","2502 Ming Ave","Bakersfield","CA","93304","US","26900170","661  831 3349","Big O Tires, your auto service experts","35.339701","-119.030496","Mon:07:30 AM-06:00 PMTue:07:30 AM-06:00 PMWed:07:30 AM-06:00 PMThu:07:30 AM-06:00 PMFri:07:30 AM-06:00 PMSat:07:30 AM-06:00 PMSun:08:00 AM-04:00 PM9/2: Closed"
"https://www.bigotires.com","5049 N 7th St","5049 N 7th St","Phoenix","AZ","85014","US","26900068","6023622105","Big O Tires, your auto service experts","33.510878","-112.064398","Mon:07:00 AM-06:00 PMTue:07:00 AM-06:00 PMWed:07:00 AM-06:00 PMThu:07:00 AM-06:00 PMFri:07:00 AM-06:00 PMSat:07:00 AM-04:00 PMSun:09:00 AM-04:00 PM"
"https://www.bigotires.com","720 E Baseline Rd","720 E Baseline Rd","Phoenix","AZ","85042","US","26900036","602  243 6255","Big O Tires, your auto service experts","33.37816","-112.063667","Mon:07:00 AM-07:00 PMTue:07:00 AM-07:00 PMWed:07:00 AM-07:00 PMThu:07:00 AM-07:00 PMFri:07:00 AM-07:00 PMSat:07:00 AM-06:00 PMSun:09:00 AM-05:00 PM"
"https://www.bigotires.com","2420 W Northern Ave","2420 W Northern Ave","Phoenix","AZ","85021","US","28000909","602  536 6886","Big O Tires, your auto service experts","33.55407","-112.11091","Mon:07:00 AM-06:00 PMTue:07:00 AM-06:00 PMWed:07:00 AM-06:00 PMThu:07:00 AM-06:00 PMFri:07:00 AM-06:00 PMSat:07:00 AM-04:00 PMSun:09:00 AM-04:00 PM"
"https://www.bigotires.com","2510 N 75th Ave","2510 N 75th Ave","Phoenix","AZ","85035","US","26900051","6238460112","Big O Tires, your auto service experts","33.475095","-112.221197","Mon:07:00 AM-06:00 PMTue:07:00 AM-06:00 PMWed:07:00 AM-06:00 PMThu:07:00 AM-06:00 PMFri:07:00 AM-06:00 PMSat:07:00 AM-06:00 PMSun:09:00 AM-05:00 PM"
"https://www.bigotires.com","2020 S Rural Rd","2020 S Rural Rd","Tempe","AZ","85282","US","26900024","4809683995","Big O Tires, your auto service experts","33.406416","-111.926584","Mon:08:00 AM-06:00 PMTue:08:00 AM-06:00 PMWed:08:00 AM-06:00 PMThu:08:00 AM-06:00 PMFri:08:00 AM-06:00 PMSat:08:00 AM-04:00 PMSun: Closed"
"https://www.bigotires.com","7630 E McDowell Rd","7630 E McDowell Rd","Scottsdale","AZ","85257","US","26900030","4809462531","Big O Tires, your auto service experts","33.46606","-111.916669","Mon:07:45 AM-06:00 PMTue:07:45 AM-06:00 PMWed:07:45 AM-06:00 PMThu:07:45 AM-06:00 PMFri:07:45 AM-06:00 PMSat:08:00 AM-04:00 PMSun: Closed"
"https://www.bigotires.com","4832 E Warner Rd","4832 E Warner Rd","Phoenix","AZ","85044","US","26900048","480  785 4518","Big O Tires, your auto service experts","33.331542","-111.979781","Mon:07:00 AM-06:00 PMTue:07:00 AM-06:00 PMWed:07:00 AM-06:00 PMThu:07:00 AM-06:00 PMFri:07:00 AM-06:00 PMSat:07:00 AM-05:00 PMSun:08:00 AM-04:00 PM"
"https://www.bigotires.com","15625 S Desert Foothills Pkwy","15625 S Desert Foothills Pkwy","Phoenix","AZ","85048","US","26900057","480  460 6319","Big O Tires, your auto service experts","33.304921","-112.05579","Mon:07:00 AM-06:00 PMTue:07:00 AM-06:00 PMWed:07:00 AM-06:00 PMThu:07:00 AM-06:00 PMFri:07:00 AM-06:00 PMSat:07:00 AM-05:00 PMSun:08:00 AM-04:00 PM"
"https://www.bigotires.com","5115 W Peoria Ave","5115 W Peoria Ave","Glendale","AZ","85302","US","26900063","623  937 3042","Big O Tires, your auto service experts","33.581394","-112.169647","Mon:07:00 AM-06:00 PMTue:07:00 AM-06:00 PMWed:07:00 AM-06:00 PMThu:07:00 AM-06:00 PMFri:07:00 AM-06:00 PMSat:07:00 AM-04:00 PMSun:10:00 AM-04:00 PM7/4: Closed"
"https://www.bigotires.com","1845 E Elliot Rd","1845 E Elliot Rd","Tempe","AZ","85284","US","26900067","4803270656","Big O Tires, your auto service experts","33.348702","-111.908646","Mon:07:00 AM-06:00 PMTue:07:00 AM-06:00 PMWed:07:00 AM-06:00 PMThu:07:00 AM-06:00 PMFri:07:00 AM-06:00 PMSat:07:00 AM-05:00 PMSun:08:00 AM-04:00 PM"
"https://www.bigotires.com","4702 E Thunderbird Rd","4702 E Thunderbird Rd","Phoenix","AZ","85032","US","26900066","6029712333","Big O Tires, your auto service experts","33.61182","-111.98027","Mon:07:00 AM-06:00 PMTue:07:00 AM-06:00 PMWed:07:00 AM-06:00 PMThu:07:00 AM-06:00 PMFri:07:00 AM-06:00 PMSat:08:00 AM-05:00 PMSun: Closed9/2: Closed"
"https://www.bigotires.com","1150 W Southern Ave","1150 W Southern Ave","Mesa","AZ","85210","US","26900071","480  500 5006","Big O Tires, your auto service experts","33.393223","-111.856335","Mon:07:00 AM-07:00 PMTue:07:00 AM-07:00 PMWed:07:00 AM-07:00 PMThu:07:00 AM-07:00 PMFri:07:00 AM-07:00 PMSat:07:00 AM-06:00 PMSun:09:00 AM-05:00 PM"
"https://www.bigotires.com","2248 West Bell Road","2248 West Bell Road","Phoenix","AZ","85023","US","26900064","602  866 7558","Big O Tires, your auto service experts","33.640492","-112.108217","Mon:07:30 AM-06:00 PMTue:07:30 AM-06:00 PMWed:07:30 AM-06:00 PMThu:07:30 AM-06:00 PMFri:07:30 AM-06:00 PMSat:08:00 AM-04:00 PMSun: Closed"
"https://www.bigotires.com","6195 W Bell Rd","6195 W Bell Rd","Glendale","AZ","85308","US","26900032","602  547 0526","Big O Tires, your auto service experts","33.638224","-112.192495","Mon:07:00 AM-06:00 PMTue:07:00 AM-06:00 PMWed:07:00 AM-06:00 PMThu:07:00 AM-06:00 PMFri:07:00 AM-06:00 PMSat:07:00 AM-05:00 PMSun: Closed9/2: Closed"
"https://www.bigotires.com","21029 N Cave Creek Rd","21029 N Cave Creek Rd","Phoenix","AZ","85024","US","26900044","6028671811","Big O Tires, your auto service experts","33.677798","-112.030504","Mon:07:30 AM-06:00 PMTue:07:30 AM-06:00 PMWed:07:30 AM-06:00 PMThu:07:30 AM-06:00 PMFri:07:30 AM-06:00 PMSat:07:30 AM-04:00 PMSun:09:00 AM-04:00 PM"
"https://www.bigotires.com","14240 W Indian School Rd","14240 W Indian School Rd","Goodyear","AZ","85395","US","26900053","6239352446","Big O Tires, your auto service experts","33.486361","-112.365006","Mon:07:00 AM-06:00 PMTue:07:00 AM-06:00 PMWed:07:00 AM-06:00 PMThu:07:00 AM-06:00 PMFri:07:00 AM-06:00 PMSat:07:00 AM-04:00 PMSun:09:00 AM-04:00 PM"
"https://www.bigotires.com","17039 N Boswell Blvd","17039 N Boswell Blvd","Sun City","AZ","85373","US","26900023","6239745701","Big O Tires, your auto service experts","33.639458","-112.277737","Mon:07:30 AM-05:00 PMTue:07:30 AM-05:00 PMWed:07:30 AM-05:00 PMThu:07:30 AM-05:00 PMFri:07:30 AM-05:00 PMSat:08:00 AM-04:00 PMSun: Closed"
"https://www.bigotires.com","1975 W Happy Valley Rd","1975 W Happy Valley Rd","Phoenix","AZ","85085","US","26900047","623 688 1889","Big O Tires, your auto service experts","33.712192","-112.101204","Mon:07:00 AM-06:00 PMTue:07:00 AM-06:00 PMWed:07:00 AM-06:00 PMThu:07:00 AM-06:00 PMFri:07:00 AM-06:00 PMSat:07:00 AM-05:00 PMSun:09:00 AM-04:00 PM"
"https://www.bigotires.com","3465 E Baseline Rd","3465 E Baseline Rd","Gilbert","AZ","85234","US","26900043","480  892 0903","Big O Tires, your auto service experts","33.3787","-111.756906","Mon:07:00 AM-07:00 PMTue:07:00 AM-07:00 PMWed:07:00 AM-07:00 PMThu:07:00 AM-07:00 PMFri:07:00 AM-07:00 PMSat:07:00 AM-06:00 PMSun:09:00 AM-05:00 PM"
"https://www.bigotires.com","750 S Lindsay Rd","750 S Lindsay Rd","Gilbert","AZ","85296","US","26900041","480  633 2446","Big O Tires, your auto service experts","33.336521","-111.773485","Mon:07:00 AM-07:00 PMTue:07:00 AM-07:00 PMWed:07:00 AM-07:00 PMThu:07:00 AM-07:00 PMFri:07:00 AM-07:00 PMSat:07:00 AM-06:00 PMSun:09:00 AM-05:00 PM"
"https://www.bigotires.com","4243 E Main St","4243 E Main St","Mesa","AZ","85205","US","26900031","4808543577","Big O Tires, your auto service experts","33.414962","-111.738927","Mon:08:00 AM-05:30 PMTue:08:00 AM-05:30 PMWed:08:00 AM-05:30 PMThu:08:00 AM-05:30 PMFri:08:00 AM-05:30 PMSat:07:30 AM-05:00 PMSun: Closed"
"https://www.bigotires.com","2550 E Germann Rd","2550 E Germann Rd","Chandler","AZ","85286","US","26900050","480  726 0077","Big O Tires, your auto service experts","33.280271","-111.796886","Mon:07:00 AM-07:00 PMTue:07:00 AM-07:00 PMWed:07:00 AM-07:00 PMThu:07:00 AM-07:00 PMFri:07:00 AM-07:00 PMSat:07:00 AM-06:00 PMSun:09:00 AM-05:00 PM"
"https://www.bigotires.com","6702 E McKellips Rd","6702 E McKellips Rd","Mesa","AZ","85215","US","26900045","480  924 4000","Big O Tires, your auto service experts","33.452382","-111.685981","Mon:07:00 AM-07:00 PMTue:07:00 AM-07:00 PMWed:07:00 AM-07:00 PMThu:07:00 AM-07:00 PMFri:07:00 AM-07:00 PMSat:07:00 AM-06:00 PMSun:09:00 AM-05:00 PM"
"https://www.bigotires.com","2113 S Power Rd","2113 S Power Rd","Mesa","AZ","85209","US","26900033","4808301118","Big O Tires, your auto service experts","33.377151","-111.687157","Mon:07:00 AM-06:00 PMTue:07:00 AM-06:00 PMWed:07:00 AM-06:00 PMThu:07:00 AM-06:00 PMFri:07:00 AM-06:00 PMSat:07:00 AM-05:00 PMSun: Closed7/4: Closed"
"https://www.bigotires.com","16880 W Waddell Rd","16880 W Waddell Rd","Surprise","AZ","85388","US","26900056","6239754200","Big O Tires, your auto service experts","33.610737","-112.422075","Mon:07:00 AM-06:00 PMTue:07:00 AM-06:00 PMWed:07:00 AM-06:00 PMThu:07:00 AM-06:00 PMFri:07:00 AM-06:00 PMSat:07:00 AM-04:00 PMSun:09:00 AM-04:00 PM"
"https://www.bigotires.com","11429 N Saguaro Blvd","11429 N Saguaro Blvd","Fountain Hills","AZ","85268","US","26900037","4808361680","Big O Tires, your auto service experts","33.590498","-111.706208","Mon:07:00 AM-06:00 PMTue:07:00 AM-06:00 PMWed:07:00 AM-06:00 PMThu:07:00 AM-06:00 PMFri:07:00 AM-06:00 PMSat:07:00 AM-03:00 PMSun: Closed9/2: Closed"
"https://www.bigotires.com","7385 S Power Rd","7385 S Power Rd","Queen Creek","AZ","85142","US","26900074","4804008726","Big O Tires, your auto service experts","33.281868","-111.685556","Mon:07:00 AM-06:00 PMTue:07:00 AM-06:00 PMWed:07:00 AM-06:00 PMThu:07:00 AM-06:00 PMFri:07:00 AM-06:00 PMSat:07:00 AM-05:00 PMSun:09:00 AM-04:00 PM"
"https://www.bigotires.com","44500 W Edison Rd","44500 W Edison Rd","Maricopa","AZ","85138","US","26900042","520  568 1460","Big O Tires, your auto service experts","33.064971","-112.04627","Mon:07:00 AM-07:00 PMTue:07:00 AM-07:00 PMWed:07:00 AM-07:00 PMThu:07:00 AM-07:00 PMFri:07:00 AM-07:00 PMSat:07:00 AM-06:00 PMSun:08:00 AM-05:00 PM"
"https://www.bigotires.com","1738 S Crismon Rd","1738 S Crismon Rd","Mesa","AZ","85209","US","26900073","4809004216","Big O Tires, your auto service experts","33.383638","-111.61627","Mon:07:00 AM-06:00 PMTue:07:00 AM-06:00 PMWed:07:00 AM-06:00 PMThu:07:00 AM-06:00 PMFri:07:00 AM-06:00 PMSat:07:00 AM-05:00 PMSun:09:00 AM-04:00 PM7/4: Closed"
"https://www.bigotires.com","35 South Idaho Rd","35 South Idaho Rd","Apache Junction","AZ","85119","US","26900070","480  288 1978","Big O Tires, your auto service experts","33.414662","-111.545585","Mon:07:30 AM-07:00 PMTue:07:30 AM-07:00 PMWed:07:30 AM-07:00 PMThu:07:30 AM-07:00 PMFri:07:30 AM-07:00 PMSat:07:30 AM-05:00 PMSun: Closed"
"https://www.bigotires.com","40421 N. Gantzel Rd.","40421 N. Gantzel Rd.","San Tan Valley","AZ","85140","US","26900058","480  750 3800","Big O Tires, your auto service experts","33.245279","-111.563177","Mon:07:00 AM-07:00 PMTue:07:00 AM-07:00 PMWed:07:00 AM-07:00 PMThu:07:00 AM-07:00 PMFri:07:00 AM-07:00 PMSat:07:00 AM-06:00 PMSun:09:00 AM-05:00 PM"
"https://www.bigotires.com","1360 W Hunt Hwy","1360 W Hunt Hwy","San Tan Valley","AZ","85143","US","26900049","480  882 1600","Big O Tires, your auto service experts","33.177188","-111.580649","Mon:07:00 AM-07:00 PMTue:07:00 AM-07:00 PMWed:07:00 AM-07:00 PMThu:07:00 AM-07:00 PMFri:07:00 AM-07:00 PMSat:07:00 AM-06:00 PMSun:09:00 AM-05:00 PM"
"https://www.bigotires.com","540 E Wickenburg Way","540 E Wickenburg Way","Wickenburg","AZ","85390","US","26900055","9286680100","Big O Tires, your auto service experts","33.967994","-112.720372","Mon:07:30 AM-05:00 PMTue:07:30 AM-05:00 PMWed:07:30 AM-05:00 PMThu:07:30 AM-05:00 PMFri:07:30 AM-05:00 PMSat:07:30 AM-04:00 PMSun: Closed7/4: Closed"
"https://www.bigotires.com","901 S Beeline Hwy","901 S Beeline Hwy","Payson","AZ","85541","US","26900034","9284748441","Big O Tires, your auto service experts","34.229198","-111.326246","Mon:08:00 AM-05:30 PMTue:08:00 AM-05:30 PMWed:08:00 AM-05:30 PMThu:08:00 AM-05:30 PMFri:08:00 AM-05:30 PMSat:08:00 AM-03:00 PMSun: Closed"
"https://www.bigotires.com","1790 N Broad St","1790 N Broad St","Globe","AZ","85501","US","26900039","928  425 8222","Big O Tires, your auto service experts","33.415748","-110.801659","Mon:08:00 AM-05:00 PMTue:08:00 AM-05:00 PMWed:08:00 AM-05:00 PMThu:08:00 AM-05:00 PMFri:08:00 AM-05:00 PMSat:08:00 AM-05:00 PMSun: Closed"
"https://www.bigotires.com","7690 E State Route 69","7690 E State Route 69","Prescott Valley","AZ","86314","US","26900060","928  772 1176","Big O Tires, your auto service experts","34.585689","-112.330859","Mon:07:30 AM-06:00 PMTue:07:30 AM-06:00 PMWed:07:30 AM-06:00 PMThu:07:30 AM-06:00 PMFri:07:30 AM-06:00 PMSat:07:30 AM-05:00 PMSun:09:00 AM-04:00 PM"
"https://www.bigotires.com","1315 W Iron Springs Rd","1315 W Iron Springs Rd","Prescott","AZ","86305","US","26900072","9287562650","Big O Tires, your auto service experts","34.562554","-112.488034","Mon:07:30 AM-06:00 PMTue:07:30 AM-06:00 PMWed:07:30 AM-06:00 PMThu:07:30 AM-06:00 PMFri:07:30 AM-06:00 PMSat:07:30 AM-04:00 PMSun: Closed"
"https://www.bigotires.com","1208 S State Route 260","1208 S State Route 260","Cottonwood","AZ","86326","US","26900020","9286340333","Big O Tires, your auto service experts","34.717016","-112.001387","Mon:07:00 AM-05:30 PMTue:07:00 AM-05:30 PMWed:07:00 AM-05:30 PMThu:07:00 AM-05:30 PMFri:07:00 AM-05:30 PMSat:07:00 AM-02:00 PMSun: Closed"
"https://www.bigotires.com","6627 N Thornydale Rd","6627 N Thornydale Rd","Tucson","AZ","85741","US","26900025","520  544 2400","Big O Tires, your auto service experts","32.327861","-111.046841","Mon:07:30 AM-06:00 PMTue:07:30 AM-06:00 PMWed:07:30 AM-06:00 PMThu:07:30 AM-06:00 PMFri:07:30 AM-06:00 PMSat:08:00 AM-05:00 PMSun: Closed"
"https://www.bigotires.com","2985 W Highway 89A","2985 W Highway 89A","Sedona","AZ","86336","US","26900026","9282828920","Big O Tires, your auto service experts","34.861862","-111.811337","Mon:07:30 AM-05:30 PMTue:07:30 AM-05:30 PMWed:07:30 AM-05:30 PMThu:07:30 AM-05:30 PMFri:07:30 AM-05:30 PMSat:07:00 AM-01:00 PMSun: Closed"
"https://www.bigotires.com","2939 SW Military Dr","2939 SW Military Dr","San Antonio","TX","78224","US","26900421","2109214941","Big O Tires, your auto service experts","29.35747","-98.54578","Mon:07:00 AM-07:00 PMTue:07:00 AM-07:00 PMWed:07:00 AM-07:00 PMThu:07:00 AM-07:00 PMFri:07:00 AM-07:00 PMSat:07:00 AM-07:00 PMSun:09:00 AM-05:00 PM7/4: Closed"
"https://www.bigotires.com","5745 NW Loop 410","5745 NW Loop 410","Leon Valley","TX","78238","US","26900419","2106846000","Big O Tires, your auto service experts","29.48206","-98.60381","Mon:07:00 AM-07:00 PMTue:07:00 AM-07:00 PMWed:07:00 AM-07:00 PMThu:07:00 AM-07:00 PMFri:07:00 AM-07:00 PMSat:07:00 AM-07:00 PMSun:09:00 AM-05:00 PM7/4: Closed"
"https://www.bigotires.com","4650 Walzem Rd","4650 Walzem Rd","San Antonio","TX","78218","US","26900417","2105908473","Big O Tires, your auto service experts","29.50985","-98.39991","Mon:07:00 AM-07:00 PMTue:07:00 AM-07:00 PMWed:07:00 AM-07:00 PMThu:07:00 AM-07:00 PMFri:07:00 AM-07:00 PMSat:07:00 AM-07:00 PMSun:09:00 AM-05:00 PM7/4: Closed"
"https://www.bigotires.com","13080 N US Highway 281","13080 N US Highway 281","San Antonio","TX","78216","US","26900416","2104908473","Big O Tires, your auto service experts","29.56029","-98.48262","Mon:07:00 AM-07:00 PMTue:07:00 AM-07:00 PMWed:07:00 AM-07:00 PMThu:07:00 AM-07:00 PMFri:07:00 AM-07:00 PMSat:07:00 AM-07:00 PMSun:09:00 AM-05:00 PM7/4: Closed"
"https://www.bigotires.com","6407 W Loop 1604 N","6407 W Loop 1604 N","San Antonio","TX","78254","US","26900418","2106889009","Big O Tires, your auto service experts","29.49694","-98.70462","Mon:07:00 AM-07:00 PMTue:07:00 AM-07:00 PMWed:07:00 AM-07:00 PMThu:07:00 AM-07:00 PMFri:07:00 AM-07:00 PMSat:07:00 AM-07:00 PMSun:09:00 AM-05:00 PM7/4: Closed"
"https://www.bigotires.com","8161 Agora Pkwy","8161 Agora Pkwy","Selma","TX","78154","US","26900420","2105661000","Big O Tires, your auto service experts","29.56637","-98.33053","Mon:07:00 AM-07:00 PMTue:07:00 AM-07:00 PMWed:07:00 AM-07:00 PMThu:07:00 AM-07:00 PMFri:07:00 AM-07:00 PMSat:07:00 AM-07:00 PMSun:09:00 AM-05:00 PM7/4: Closed"
"https://www.bigotires.com","1106 Garnet Ave","1106 Garnet Ave","San Diego","CA","92109","US","26900140","8584900409","Big O Tires, your auto service experts","32.798135","-117.249849","Mon:07:30 AM-05:30 PMTue:07:30 AM-05:30 PMWed:07:30 AM-05:30 PMThu:07:30 AM-05:30 PMFri:07:30 AM-05:30 PMSat:07:30 AM-04:00 PMSun: Closed"
"https://www.bigotires.com","7589 El Cajon Blvd","7589 El Cajon Blvd","La Mesa","CA","91942","US","26900135","6196676767","Big O Tires, your auto service experts","32.767933","-117.034339","Mon:08:00 AM-06:00 PMTue:08:00 AM-06:00 PMWed:08:00 AM-06:00 PMThu:08:00 AM-06:00 PMFri:08:00 AM-06:00 PMSat:08:00 AM-05:00 PMSun: Closed"
"https://www.bigotires.com","796 E Mono Way","796 E Mono Way","Sonora","CA","95370","US","26900133","2095369210","Big O Tires, your auto service experts","32.812464","-116.93532","Mon:08:00 AM-06:00 PMTue:08:00 AM-06:00 PMWed:08:00 AM-06:00 PMThu:08:00 AM-06:00 PMFri:08:00 AM-06:00 PMSat:08:00 AM-05:00 PMSun: Closed9/2: Closed"
"https://www.bigotires.com","12947 Poway Rd","12947 Poway Rd","Poway","CA","92064","US","26900160","8584862446","Big O Tires, your auto service experts","32.956194","-117.05024","Mon:07:30 AM-05:30 PMTue:07:30 AM-05:30 PMWed:07:30 AM-05:30 PMThu:07:30 AM-05:30 PMFri:07:30 AM-05:30 PMSat:07:30 AM-04:00 PMSun: Closed"
"https://www.bigotires.com","68365 Ramon Rd","68365 Ramon Rd","Cathedral City","CA","92234","US","26900137","7603281828","Big O Tires, your auto service experts","33.815691","-116.469339","Mon:08:00 AM-06:00 PMTue:08:00 AM-06:00 PMWed:08:00 AM-06:00 PMThu:08:00 AM-06:00 PMFri:08:00 AM-06:00 PMSat:08:00 AM-05:00 PMSun:09:00 AM-04:00 PM"
"https://www.bigotires.com","42098 Washington St","42098 Washington St","Bermuda Dunes","CA","92203","US","26900142","7602009005","Big O Tires, your auto service experts","33.743222","-116.302064","Mon:08:00 AM-06:00 PMTue:08:00 AM-06:00 PMWed:08:00 AM-06:00 PMThu:08:00 AM-06:00 PMFri:08:00 AM-06:00 PMSat:08:00 AM-05:00 PMSun:09:00 AM-04:00 PM"
"https://www.bigotires.com","1509 Parkmoor Ave","1509 Parkmoor Ave","San Jose","CA","95128","US","26900117","4085123994","Big O Tires, your auto service experts","37.3166","-121.915","Mon:07:00 AM-07:00 PMTue:07:00 AM-07:00 PMWed:07:00 AM-07:00 PMThu:07:00 AM-07:00 PMFri:07:00 AM-07:00 PMSat:07:00 AM-07:00 PMSun:09:00 AM-05:00 PM7/4: Closed"
"https://www.bigotires.com","215 W El Camino Real","215 W El Camino Real","Mountain View","CA","94040","US","26900130","6503537162","Big O Tires, your auto service experts","37.38257","-122.07809","Mon:08:00 AM-06:00 PMTue:08:00 AM-06:00 PMWed:08:00 AM-06:00 PMThu:08:00 AM-06:00 PMFri:08:00 AM-06:00 PMSat:08:00 AM-06:00 PMSun: Closed7/4: Closed"
"https://www.bigotires.com","35255 Newark Blvd","35255 Newark Blvd","Newark","CA","94560","US","26900095","5104560161","Big O Tires, your auto service experts","37.547953","-122.045077","Mon:08:00 AM-06:00 PMTue:08:00 AM-06:00 PMWed:08:00 AM-06:00 PMThu:08:00 AM-06:00 PMFri:08:00 AM-06:00 PMSat:08:00 AM-05:00 PMSun: Closed9/2: Closed"
"https://www.bigotires.com","2310 El Camino Real","2310 El Camino Real","Redwood City","CA","94063","US","26900099","6503858581","Big O Tires, your auto service experts","37.475196","-122.220466","Mon:08:00 AM-06:00 PMTue:08:00 AM-06:00 PMWed:08:00 AM-06:00 PMThu:08:00 AM-06:00 PMFri:08:00 AM-06:00 PMSat:08:00 AM-06:00 PMSun: Closed7/4: Closed"
"https://www.bigotires.com","15745 Monterey Rd","15745 Monterey Rd","Morgan Hill","CA","95037","US","26900119","4088254933","Big O Tires, your auto service experts","37.109897","-121.639852","Mon:08:00 AM-06:00 PMTue:08:00 AM-06:00 PMWed:08:00 AM-06:00 PMThu:08:00 AM-06:00 PMFri:08:00 AM-06:00 PMSat:08:00 AM-06:00 PMSun: Closed7/4: Closed"
"https://www.bigotires.com","3688A Washington St","3688A Washington St","Pleasanton","CA","94566","US","26900082","9254627650","Big O Tires, your auto service experts","37.668963","-121.860854","Mon:07:30 AM-05:30 PMTue:07:30 AM-05:30 PMWed:07:30 AM-05:30 PMThu:07:30 AM-05:30 PMFri:07:30 AM-05:30 PMSat:08:00 AM-04:00 PMSun: Closed"
"https://www.bigotires.com","7121 Dublin Blvd","7121 Dublin Blvd","Dublin","CA","94568","US","26900077","9258291950","Big O Tires, your auto service experts","37.706384","-121.922203","Mon:08:00 AM-06:00 PMTue:08:00 AM-06:00 PMWed:08:00 AM-06:00 PMThu:08:00 AM-06:00 PMFri:08:00 AM-06:00 PMSat:08:00 AM-05:00 PMSun: Closed9/2: Closed"
"https://www.bigotires.com","4025 First Street","4025 First Street","Livermore","CA","94551","US","26900101","9258003961","Big O Tires, your auto service experts","37.691459","-121.749637","Mon:08:00 AM-05:30 PMTue:08:00 AM-05:30 PMWed:08:00 AM-05:30 PMThu:08:00 AM-05:30 PMFri:08:00 AM-05:30 PMSat:08:00 AM-04:00 PMSun: Closed9/2: Closed"
"https://www.bigotires.com","1219 Soquel Ave","1219 Soquel Ave","Santa Cruz","CA","95062","US","26900100","8314299989","Big O Tires, your auto service experts","36.980369","-122.010076","Mon:07:30 AM-05:30 PMTue:07:30 AM-05:30 PMWed:07:30 AM-05:30 PMThu:07:30 AM-05:30 PMFri:07:30 AM-05:30 PMSat:07:30 AM-04:00 PMSun: Closed"
"https://www.bigotires.com","2160 S El Camino Real","2160 S El Camino Real","San Mateo","CA","94403","US","26900109","6503899463","Big O Tires, your auto service experts","37.54666","-122.308525","Mon:08:00 AM-06:00 PMTue:08:00 AM-06:00 PMWed:08:00 AM-06:00 PMThu:08:00 AM-06:00 PMFri:08:00 AM-06:00 PMSat:08:00 AM-06:00 PMSun:09:00 AM-05:00 PM7/4: Closed"
"https://www.bigotires.com","15241 Washington Ave","15241 Washington Ave","San Leandro","CA","94579","US","26900096","5103578473","Big O Tires, your auto service experts","37.687257","-122.139384","Mon:08:00 AM-05:00 PMTue:08:00 AM-05:00 PMWed:08:00 AM-05:00 PMThu:08:00 AM-05:00 PMFri:08:00 AM-05:00 PMSat:07:30 AM-03:00 PMSun: Closed"
"https://www.bigotires.com","2201 Washington Ave","2201 Washington Ave","San Leandro","CA","94577","US","26900081","5103515022","Big O Tires, your auto service experts","37.716624","-122.151375","Mon:08:00 AM-05:00 PMTue:08:00 AM-05:00 PMWed:08:00 AM-05:00 PMThu:08:00 AM-05:00 PMFri:08:00 AM-05:00 PMSat:08:00 AM-04:00 PMSun: Closed"
"https://www.bigotires.com","2089 Camino Ramon","2089 Camino Ramon","San Ramon","CA","94583","US","26900093","9253944254","Big O Tires, your auto service experts","37.781498","-121.96975","Mon:08:00 AM-06:00 PMTue:08:00 AM-06:00 PMWed:08:00 AM-06:00 PMThu:08:00 AM-06:00 PMFri:08:00 AM-06:00 PMSat:08:00 AM-04:00 PMSun: Closed9/2: Closed"
"https://www.bigotires.com","155 W Linda Mesa Ave","155 W Linda Mesa Ave","Danville","CA","94526","US","26900111","9253095944","Big O Tires, your auto service experts","37.822409","-122.002736","Mon:08:00 AM-07:00 PMTue:08:00 AM-07:00 PMWed:08:00 AM-07:00 PMThu:08:00 AM-07:00 PMFri:08:00 AM-07:00 PMSat:08:00 AM-06:00 PMSun: Closed7/4: Closed"
"https://www.bigotires.com","1129 W 11th St","1129 W 11th St","Tracy","CA","95376","US","26900120","2098362683","Big O Tires, your auto service experts","37.73994","-121.43892","Mon:08:00 AM-06:00 PMTue:08:00 AM-06:00 PMWed:08:00 AM-06:00 PMThu:08:00 AM-06:00 PMFri:08:00 AM-06:00 PMSat:08:00 AM-06:00 PMSun:09:00 AM-05:00 PM"
"https://www.bigotires.com","3328 Mount Diablo Blvd","3328 Mount Diablo Blvd","Lafayette","CA","94549","US","26900075","9252832258","Big O Tires, your auto service experts","37.896088","-122.10383","Mon:08:00 AM-05:30 PMTue:08:00 AM-05:30 PMWed:08:00 AM-05:30 PMThu:08:00 AM-05:30 PMFri:08:00 AM-05:30 PMSat:08:00 AM-04:30 PMSun: Closed"
"https://www.bigotires.com","2155 N Broadway","2155 N Broadway","Walnut Creek","CA","94596","US","26900113","9259375873","Big O Tires, your auto service experts","37.909758","-122.062605","Mon:07:00 AM-08:00 PMTue:07:00 AM-08:00 PMWed:07:00 AM-08:00 PMThu:07:00 AM-08:00 PMFri:07:00 AM-08:00 PMSat:07:00 AM-07:00 PMSun:09:00 AM-05:00 PM7/4: Closed"
"https://www.bigotires.com","165 S Van Ness Ave","165 S Van Ness Ave","San Francisco","CA","94103","US","26900106","4156262446","Big O Tires, your auto service experts","37.771043","-122.417673","Mon:07:00 AM-06:00 PMTue:07:00 AM-06:00 PMWed:07:00 AM-06:00 PMThu:07:00 AM-06:00 PMFri:07:00 AM-06:00 PMSat:07:00 AM-05:00 PMSun: Closed7/4: Closed"
"https://www.bigotires.com","2625 San Pablo Ave","2625 San Pablo Ave","Berkeley","CA","94702","US","26900104","5106460963","Big O Tires, your auto service experts","37.858326","-122.28823","Mon:07:00 AM-08:00 PMTue:07:00 AM-08:00 PMWed:07:00 AM-08:00 PMThu:07:00 AM-08:00 PMFri:07:00 AM-08:00 PMSat:07:00 AM-07:00 PMSun:09:00 AM-05:00 PM7/4: Closed"
"https://www.bigotires.com","8040 Brentwood Blvd","8040 Brentwood Blvd","Brentwood","CA","94513","US","26900089","9256344344","Big O Tires, your auto service experts","37.938997","-121.695778","Mon:08:00 AM-05:30 PMTue:08:00 AM-05:30 PMWed:08:00 AM-05:30 PMThu:08:00 AM-05:30 PMFri:08:00 AM-05:30 PMSat:08:00 AM-04:00 PMSun: Closed"
"https://www.bigotires.com","1845 Contra Costa Blvd","1845 Contra Costa Blvd","Pleasant Hill","CA","94523","US","26900107","9258258203","Big O Tires, your auto service experts","37.950837","-122.060454","Mon:07:30 AM-05:30 PMTue:07:30 AM-05:30 PMWed:07:30 AM-05:30 PMThu:07:30 AM-05:30 PMFri:07:30 AM-05:30 PMSat:07:30 AM-05:30 PMSun: Closed9/2: Closed"
"https://www.bigotires.com","3040 Geary Blvd","3040 Geary Blvd","San Francisco","CA","94118","US","26900102","4156896763","Big O Tires, your auto service experts","37.782202","-122.451991","Mon:07:00 AM-08:00 PMTue:07:00 AM-08:00 PMWed:07:00 AM-08:00 PMThu:07:00 AM-08:00 PMFri:07:00 AM-08:00 PMSat:07:00 AM-07:00 PMSun:09:00 AM-05:00 PM7/4: Closed"
"https://www.bigotires.com","1699 Airline Hwy, Suite 101","1699 Airline Hwy, Suite 101","Hollister","CA","95023","US","26900118","8313131800","Big O Tires, your auto service experts","36.83891","-121.3896","Mon:08:30 AM-05:00 PMTue:08:30 AM-05:00 PMWed:08:30 AM-05:00 PMThu:08:30 AM-05:00 PMFri:08:30 AM-05:00 PMSat:08:30 AM-05:00 PMSun: Closed9/2: Closed"
"https://www.bigotires.com","3572 Clayton Rd","3572 Clayton Rd","Concord","CA","94519","US","26900080","9256760900","Big O Tires, your auto service experts","37.970063","-122.010641","Mon:08:00 AM-06:00 PMTue:08:00 AM-06:00 PMWed:08:00 AM-06:00 PMThu:08:00 AM-06:00 PMFri:08:00 AM-06:00 PMSat:08:30 AM-04:30 PMSun: Closed"
"https://www.bigotires.com","1440 Concord Ave A","1440 Concord Ave A","Concord","CA","94520","US","26900083","9256761200","Big O Tires, your auto service experts","37.979075","-122.045678","Mon:08:00 AM-06:00 PMTue:08:00 AM-06:00 PMWed:08:00 AM-06:00 PMThu:08:00 AM-06:00 PMFri:08:00 AM-06:00 PMSat:08:00 AM-04:00 PMSun:09:00 AM-04:00 PM9/2: Closed"
"https://www.bigotires.com","412 E 18th St","412 E 18th St","Antioch","CA","94509","US","26900076","9257576420","Big O Tires, your auto service experts","38.004641","-121.797432","Mon:08:00 AM-05:30 PMTue:08:00 AM-05:30 PMWed:08:00 AM-05:30 PMThu:08:00 AM-05:30 PMFri:08:00 AM-05:30 PMSat:08:00 AM-04:00 PMSun: Closed9/2: Closed"
"https://www.bigotires.com","1500 N Park Blvd","1500 N Park Blvd","Pittsburg","CA","94565","US","26900079","9254323883","Big O Tires, your auto service experts","38.011895","-121.864106","Mon:08:00 AM-06:00 PMTue:08:00 AM-06:00 PMWed:08:00 AM-06:00 PMThu:08:00 AM-06:00 PMFri:08:00 AM-06:00 PMSat:08:00 AM-04:00 PMSun: Closed"
"https://www.bigotires.com","12952 San Pablo Ave","12952 San Pablo Ave","Richmond","CA","94805","US","26900078","510  234 1721","Big O Tires, your auto service experts","37.948549","-122.330957","Mon:08:00 AM-05:30 PMTue:08:00 AM-05:30 PMWed:08:00 AM-05:30 PMThu:08:00 AM-05:30 PMFri:08:00 AM-05:30 PMSat:08:00 AM-04:30 PMSun: Closed9/2: Closed"
"https://www.bigotires.com","415 Military E","415 Military E","Benicia","CA","94510","US","26900110","7074005357","Big O Tires, your auto service experts","38.051929","-122.148494","Mon:07:00 AM-07:00 PMTue:07:00 AM-07:00 PMWed:07:00 AM-07:00 PMThu:07:00 AM-07:00 PMFri:07:00 AM-07:00 PMSat:07:00 AM-07:00 PMSun: Closed7/4: Closed"
"https://www.bigotires.com","700 Belmont Way","700 Belmont Way","Pinole","CA","94564","US","26900131","5107249444","Big O Tires, your auto service experts","38.00248","-122.316041","Mon:08:00 AM-07:00 PMTue:08:00 AM-07:00 PMWed:08:00 AM-07:00 PMThu:08:00 AM-07:00 PMFri:08:00 AM-07:00 PMSat:08:00 AM-07:00 AMSun: Closed"
"https://www.bigotires.com","4237 McHenry Ave","4237 McHenry Ave","Modesto","CA","95356","US","26900126","2095276248","Big O Tires, your auto service experts","37.701041","-120.9951","Mon:08:00 AM-05:00 PMTue:08:00 AM-05:00 PMWed:08:00 AM-05:00 PMThu:08:00 AM-05:00 PMFri:08:00 AM-05:00 PMSat:08:00 AM-04:30 PMSun: Closed"
"https://www.bigotires.com","7427 Redwood Blvd","7427 Redwood Blvd","Novato","CA","94945","US","26900098","4158927585","Big O Tires, your auto service experts","38.109821","-122.569888","Mon:08:00 AM-05:30 PMTue:08:00 AM-05:30 PMWed:08:00 AM-05:30 PMThu:08:00 AM-05:30 PMFri:08:00 AM-05:30 PMSat:08:00 AM-04:00 PMSun: Closed"
"https://www.bigotires.com","442 Soscol Ave","442 Soscol Ave","Napa","CA","94559","US","26900103","7076810799","Big O Tires, your auto service experts","38.290035","-122.275819","Mon:08:00 AM-06:00 PMTue:08:00 AM-06:00 PMWed:08:00 AM-06:00 PMThu:08:00 AM-06:00 PMFri:08:00 AM-06:00 PMSat:08:00 AM-06:00 PMSun: Closed7/4: Closed"
"https://www.bigotires.com","1221 E Monte Vista Ave","1221 E Monte Vista Ave","Vacaville","CA","95688","US","26900115","7074473351","Big O Tires, your auto service experts","38.36141","-121.9742","Mon:07:30 AM-05:30 PMTue:07:30 AM-05:30 PMWed:07:30 AM-05:30 PMThu:07:30 AM-05:30 PMFri:07:30 AM-05:30 PMSat:07:30 AM-04:00 PMSun: Closed9/2: Closed"
"https://www.bigotires.com","516 E Washington St","516 E Washington St","Petaluma","CA","94952","US","26900086","7077652500","Big O Tires, your auto service experts","38.239367","-122.634592","Mon:08:00 AM-05:00 PMTue:08:00 AM-05:00 PMWed:08:00 AM-05:00 PMThu:08:00 AM-05:00 PMFri:08:00 AM-05:00 PMSat:08:00 AM-05:00 PMSun: Closed"
"https://www.bigotires.com","1261 W 18th St","1261 W 18th St","Merced","CA","95340","US","26900094","2093843295","Big O Tires, your auto service experts","37.307076","-120.494399","Mon:07:30 AM-05:30 PMTue:07:30 AM-05:30 PMWed:07:30 AM-05:30 PMThu:07:30 AM-05:30 PMFri:07:30 AM-05:30 PMSat:07:30 AM-03:00 PMSun: Closed7/4: Closed"
"https://www.bigotires.com","8022 Orchard Loop","8022 Orchard Loop","Elk Grove","CA","95624","US","26900125","916  689 6700","Big O Tires, your auto service experts","38.455667","-121.406693","Mon:08:00 AM-06:00 PMTue:08:00 AM-06:00 PMWed:08:00 AM-06:00 PMThu:08:00 AM-06:00 PMFri:08:00 AM-06:00 PMSat:08:00 AM-06:00 PMSun: Closed"
"https://www.bigotires.com","5701 Folsom Blvd","5701 Folsom Blvd","Sacramento","CA","95819","US","26900129","9164525946","Big O Tires, your auto service experts","38.558246","-121.436743","Mon:07:30 AM-06:00 PMTue:07:30 AM-06:00 PMWed:07:30 AM-06:00 PMThu:07:30 AM-06:00 PMFri:07:30 AM-06:00 PMSat:07:30 AM-04:00 PMSun: Closed"
"https://www.bigotires.com","1615 L St","1615 L St","Sacramento","CA","95814","US","26900091","9164432900","Big O Tires, your auto service experts","38.576054","-121.48547","Mon:07:00 AM-06:00 PMTue:07:00 AM-06:00 PMWed:07:00 AM-06:00 PMThu:07:00 AM-06:00 PMFri:07:00 AM-06:00 PMSat:08:00 AM-05:00 PMSun: Closed"
"https://www.bigotires.com","872 4th St","872 4th St","Santa Rosa","CA","95404","US","26900128","7073870961","Big O Tires, your auto service experts","38.442844","-122.70821","Mon:08:00 AM-06:00 PMTue:08:00 AM-06:00 PMWed:08:00 AM-06:00 PMThu:08:00 AM-06:00 PMFri:08:00 AM-06:00 PMSat:08:00 AM-05:00 PMSun: Closed7/4: Closed"
"https://www.bigotires.com","742 S Main St","742 S Main St","Sebastopol","CA","95472","US","26900124","7078299864","Big O Tires, your auto service experts","38.395029","-122.81998","Mon:08:00 AM-06:00 PMTue:08:00 AM-06:00 PMWed:08:00 AM-06:00 PMThu:08:00 AM-06:00 PMFri:08:00 AM-06:00 PMSat:08:00 AM-06:00 PMSun: Closed"
"https://www.bigotires.com","220 W Main St","220 W Main St","Woodland","CA","95695","US","26900084","5306629106","Big O Tires, your auto service experts","38.678009","-121.794502","Mon:07:30 AM-05:30 PMTue:07:30 AM-05:30 PMWed:07:30 AM-05:30 PMThu:07:30 AM-05:30 PMFri:07:30 AM-05:30 PMSat:08:00 AM-04:00 PMSun: Closed"
"https://www.bigotires.com","2259 Sunrise Blvd","2259 Sunrise Blvd","Gold River","CA","95670","US","26900127","9163419044","Big O Tires, your auto service experts","38.62086","-121.26702","Mon:08:00 AM-06:00 AMTue:08:00 AM-06:00 AMWed:08:00 AM-06:00 AMThu:08:00 AM-06:00 AMFri:08:00 AM-06:00 AMSat:08:00 AM-05:00 AMSun: Closed7/4: Closed"
"https://www.bigotires.com","185 Blue Ravine Rd","185 Blue Ravine Rd","Folsom","CA","95630","US","26900112","9164678787","Big O Tires, your auto service experts","38.654516","-121.183037","Mon:08:00 AM-06:00 PMTue:08:00 AM-06:00 PMWed:08:00 AM-06:00 PMThu:08:00 AM-06:00 PMFri:08:00 AM-06:00 PMSat:08:00 AM-05:00 PMSun: Closed7/4: Closed"
"https://www.bigotires.com","1000 Riley St, Suite B","1000 Riley St, Suite B","Folsom","CA","95630","US","27800001","916  404 1944","Big O Tires, your auto service experts","38.668184","-121.168184","Mon:08:00 AM-06:00 PMTue:08:00 AM-06:00 PMWed:08:00 AM-06:00 PMThu:08:00 AM-06:00 PMFri:08:00 AM-06:00 PMSat:08:00 AM-05:00 PMSun: Closed"
"https://www.bigotires.com","2668 E Main St","2668 E Main St","Plainfield","IN","46168","US","26900256","3172795071","Big O Tires, your auto service experts","39.718916","-86.355705","Mon:07:30 AM-06:00 PMTue:07:30 AM-06:00 PMWed:07:30 AM-06:00 PMThu:07:30 AM-06:00 PMFri:07:30 AM-06:00 PMSat:07:30 AM-03:00 PMSun: Closed9/2: Closed"
"https://www.bigotires.com","5707 W 86th St","5707 W 86th St","Indianapolis","IN","46278","US","26900261","3173349999","Big O Tires, your auto service experts","39.910068","-86.261796","Mon:07:30 AM-06:00 PMTue:07:30 AM-06:00 PMWed:07:30 AM-06:00 PMThu:07:30 AM-06:00 PMFri:07:30 AM-06:00 PMSat:07:30 AM-03:00 PMSun: Closed7/4: Closed"
"https://www.bigotires.com","5 Commerce Dr","5 Commerce Dr","Brownsburg","IN","46112","US","26900252","3178589800","Big O Tires, your auto service experts","39.862772","-86.393301","Mon:08:00 AM-06:00 PMTue:08:00 AM-06:00 PMWed:08:00 AM-06:00 PMThu:08:00 AM-06:00 PMFri:08:00 AM-06:00 PMSat:08:00 AM-03:00 PMSun: Closed"
"https://www.bigotires.com","811 W Main St","811 W Main St","Carmel","IN","46032","US","26900263","3178463216","Big O Tires, your auto service experts","39.977926","-86.141297","Mon:07:30 AM-06:00 PMTue:07:30 AM-06:00 PMWed:07:30 AM-06:00 PMThu:07:30 AM-06:00 PMFri:07:30 AM-06:00 PMSat:08:00 AM-03:00 PMSun: Closed9/2: Closed"
"https://www.bigotires.com","6380 Center Dr","6380 Center Dr","Whitestown","IN","46075","US","26900270","317 769 7900","Big O Tires, your auto service experts","39.948516","-86.350645","Mon:07:30 AM-06:00 PMTue:07:30 AM-06:00 PMWed:07:30 AM-06:00 PMThu:07:30 AM-06:00 PMFri:07:30 AM-06:00 PMSat:08:00 AM-04:00 PMSun: Closed7/4: Closed"
"https://www.bigotires.com","540 S State Road 67","540 S State Road 67","Mooresville","IN","46158","US","26900253","3178346840","Big O Tires, your auto service experts","39.603011","-86.372667","Mon:07:30 AM-06:00 PMTue:07:30 AM-06:00 PMWed:07:30 AM-06:00 PMThu:07:30 AM-06:00 PMFri:07:30 AM-06:00 PMSat:07:30 AM-03:00 PMSun: Closed9/2: Closed"
"https://www.bigotires.com","9240 E 146th St","9240 E 146th St","Noblesville","IN","46060","US","26900264","3177708100","Big O Tires, your auto service experts","40.001247","-86.007409","Mon:07:30 AM-06:00 PMTue:07:30 AM-06:00 PMWed:07:30 AM-06:00 PMThu:07:30 AM-06:00 PMFri:07:30 AM-06:00 PMSat:08:00 AM-03:00 PMSun: Closed"
"https://www.bigotires.com","2471 N Lebanon St","2471 N Lebanon St","Lebanon","IN","46052","US","26900255","7654826818","Big O Tires, your auto service experts","40.073204","-86.473781","Mon:08:00 AM-06:00 PMTue:08:00 AM-06:00 PMWed:08:00 AM-06:00 PMThu:08:00 AM-06:00 PMFri:08:00 AM-06:00 PMSat:08:00 AM-03:00 PMSun: Closed"
"https://www.bigotires.com","601 S Memorial Dr","601 S Memorial Dr","New Castle","IN","47362","US","26900254","7655294874","Big O Tires, your auto service experts","39.926383","-85.382787","Mon:08:00 AM-07:00 PMTue:08:00 AM-07:00 PMWed:08:00 AM-07:00 PMThu:08:00 AM-07:00 PMFri:08:00 AM-07:00 PMSat:08:00 AM-05:00 PMSun:09:00 AM-04:00 PM"
"https://www.bigotires.com","420 Circle St","420 Circle St","Seymour","IN","47274","US","26900271","8125226611","Big O Tires, your auto service experts","38.958749","-85.883421","Mon:08:00 AM-06:00 PMTue:08:00 AM-06:00 PMWed:08:00 AM-06:00 PMThu:08:00 AM-06:00 PMFri:08:00 AM-06:00 PMSat:08:00 AM-03:00 PMSun: Closed9/2: Closed"
"https://www.bigotires.com","1420 James Ave","1420 James Ave","Bedford","IN","47421","US","26900265","8123292524","Big O Tires, your auto service experts","38.862228","-86.518997","Mon:07:30 AM-06:00 PMTue:07:30 AM-06:00 PMWed:07:30 AM-06:00 PMThu:07:30 AM-06:00 PMFri:07:30 AM-06:00 PMSat:07:30 AM-12:00 AMSun: Closed"
"https://www.bigotires.com","2909 S 3rd Pl","2909 S 3rd Pl","Terre Haute","IN","47802","US","26900258","812  478 3300","Big O Tires, your auto service experts","39.43024","-87.423038","Mon:07:30 AM-06:00 PMTue:07:30 AM-06:00 PMWed:07:30 AM-06:00 PMThu:07:30 AM-06:00 PMFri:07:30 AM-06:00 PMSat:07:30 AM-05:00 PMSun: Closed"
"https://www.bigotires.com","1621 W McClain Ave","1621 W McClain Ave","Scottsburg","IN","47170","US","26900269","8127522118","Big O Tires, your auto service experts","38.684517","-85.79675","Mon:08:00 AM-06:00 PMTue:08:00 AM-06:00 PMWed:08:00 AM-06:00 PMThu:08:00 AM-06:00 PMFri:08:00 AM-06:00 PMSat:08:00 AM-03:00 PMSun: Closed9/2: Closed"
"https://www.bigotires.com","215 Clifty Dr","215 Clifty Dr","Madison","IN","47250","US","26900267","8122735463","Big O Tires, your auto service experts","38.774583","-85.39062","Mon:08:00 AM-06:00 PMTue:08:00 AM-06:00 PMWed:08:00 AM-06:00 PMThu:08:00 AM-06:00 PMFri:08:00 AM-06:00 PMSat:08:00 AM-03:00 PMSun: Closed9/2: Closed"
"https://www.bigotires.com","6565 Winford Ave","6565 Winford Ave","Hamilton","OH","45011","US","26900404","5137374900","Big O Tires, your auto service experts","39.391571","-84.510208","Mon:07:30 AM-06:00 PMTue:07:30 AM-06:00 PMWed:07:30 AM-06:00 PMThu:07:30 AM-06:00 PMFri:07:30 AM-06:00 PMSat:07:30 AM-04:00 PMSun: Closed9/2: Closed"
"https://www.bigotires.com","203 SE 3rd St","203 SE 3rd St","Washington","IN","47501","US","26900266","8122543001","Big O Tires, your auto service experts","38.6553","-87.1723","Mon:07:30 AM-05:30 PMTue:07:30 AM-05:30 PMWed:07:30 AM-05:30 PMThu:07:30 AM-05:30 PMFri:07:30 AM-05:30 PMSat:07:30 AM-02:30 PMSun: Closed"
"https://www.bigotires.com","1115 Healdsburg Ave","1115 Healdsburg Ave","Healdsburg","CA","95448","US","26900087","7074336644","Big O Tires, your auto service experts","38.623556","-122.872872","Mon:08:00 AM-05:00 PMTue:08:00 AM-05:00 PMWed:08:00 AM-05:00 PMThu:08:00 AM-05:00 PMFri:08:00 AM-05:00 PMSat:08:00 AM-04:30 PMSun: Closed"
"https://www.bigotires.com","15195 Lakeshore Dr","15195 Lakeshore Dr","Clearlake","CA","95422","US","26900108","7079948000","Big O Tires, your auto service experts","38.949382","-122.626858","Mon:08:00 AM-05:30 PMTue:08:00 AM-05:30 PMWed:08:00 AM-05:30 PMThu:08:00 AM-05:30 PMFri:08:00 AM-05:30 PMSat:08:00 PM-04:00 PMSun: Closed"
"https://www.bigotires.com","199 S Harding Blvd","199 S Harding Blvd","Roseville","CA","95678","US","26900123","9167842219","Big O Tires, your auto service experts","38.743513","-121.273455","Mon:08:00 AM-06:00 PMTue:08:00 AM-06:00 PMWed:08:00 AM-06:00 PMThu:08:00 AM-06:00 PMFri:08:00 AM-06:00 PMSat:08:00 AM-05:00 PMSun: Closed9/2: Closed"
"https://www.bigotires.com","4640 Post Street","4640 Post Street","El Dorado Hills","CA","95762","US","26900092","9162935665","Big O Tires, your auto service experts","38.648095","-121.067429","Mon:08:00 AM-06:00 PMTue:08:00 AM-06:00 PMWed:08:00 AM-06:00 PMThu:08:00 AM-06:00 PMFri:08:00 AM-06:00 PMSat:08:00 AM-04:00 PMSun: Closed9/2: Closed"
"https://www.bigotires.com","3321 Durock Rd","3321 Durock Rd","Cameron Park","CA","95682","US","26900090","5306762446","Big O Tires, your auto service experts","38.65483","-120.968415","Mon:07:00 AM-06:00 PMTue:07:00 AM-06:00 PMWed:07:00 AM-06:00 PMThu:07:00 AM-06:00 PMFri:07:00 AM-06:00 PMSat:08:00 AM-05:00 PMSun: Closed"
"https://www.bigotires.com","1330 El Paseo Rd","1330 El Paseo Rd","Las Cruces","NM","88001","US","26900387","5755243548","Big O Tires, your auto service experts","32.296276","-106.770667","Mon:07:00 AM-06:00 PMTue:07:00 AM-06:00 PMWed:07:00 AM-06:00 PMThu:07:00 AM-06:00 PMFri:07:00 AM-06:00 PMSat:07:00 AM-05:00 PMSun: Closed"
"https://www.bigotires.com","4145 White Sage Blvd","4145 White Sage Blvd","Las Cruces","NM","88011","US","26900398","5755243549","Big O Tires, your auto service experts","32.36968","-106.74197","Mon:07:00 AM-06:00 PMTue:07:00 AM-06:00 PMWed:07:00 AM-06:00 PMThu:07:00 AM-06:00 PMFri:07:00 AM-06:00 PMSat:07:00 AM-05:00 PMSun: Closed9/2: Closed"
"https://www.bigotires.com","1715 E Pine St","1715 E Pine St","Deming","NM","88030","US","26900389","5755442446","Big O Tires, your auto service experts","32.269017","-107.73952","Mon:08:00 AM-05:00 PMTue:08:00 AM-05:00 PMWed:08:00 AM-05:00 PMThu:08:00 AM-05:00 PMFri:08:00 AM-05:00 PMSat:08:00 AM-11:00 AMSun: Closed"
"https://www.bigotires.com","621 N White Sands Blvd","621 N White Sands Blvd","Alamogordo","NM","88310","US","26900397","5754371125","Big O Tires, your auto service experts","32.896534","-105.960756","Mon:07:30 AM-06:00 PMTue:07:30 AM-06:00 PMWed:07:30 AM-06:00 PMThu:07:30 AM-06:00 PMFri:07:30 AM-06:00 PMSat:07:30 AM-04:00 PMSun: Closed9/2: Closed7/4: Closed"
"https://www.bigotires.com","10658 SE 180th St","10658 SE 180th St","Renton","WA","98055","US","26900470","4252359417","Big O Tires, your auto service experts","47.44096","-122.198437","Mon:08:00 AM-06:00 PMTue:08:00 AM-06:00 PMWed:08:00 AM-06:00 PMThu:08:00 AM-06:00 PMFri:08:00 AM-06:00 PMSat:08:00 AM-04:00 PMSun: Closed9/2: Closed"
"https://www.bigotires.com","60 NW Gilman Blvd","60 NW Gilman Blvd","Issaquah","WA","98027","US","26900469","4253914161","Big O Tires, your auto service experts","47.538985","-122.03713","Mon:08:00 AM-06:00 PMTue:08:00 AM-06:00 PMWed:08:00 AM-06:00 PMThu:08:00 AM-06:00 PMFri:08:00 AM-06:00 PMSat:08:00 AM-04:00 PMSun: Closed9/2: Closed"
"https://www.bigotires.com","809 Vernon Rd","809 Vernon Rd","Lake Stevens","WA","98258","US","26900471","4253357944","Big O Tires, your auto service experts","48.003956","-122.10705","Mon:08:00 AM-06:00 PMTue:08:00 AM-06:00 PMWed:08:00 AM-06:00 PMThu:08:00 AM-06:00 PMFri:08:00 AM-06:00 PMSat:08:00 AM-04:00 PMSun: Closed9/2: Closed"
"https://www.bigotires.com","5405 E Colfax Ave","5405 E Colfax Ave","Denver","CO","80220","US","26900207","3033553551","Big O Tires, your auto service experts","39.740512","-104.924419","Mon:07:00 AM-06:00 PMTue:07:00 AM-06:00 PMWed:07:00 AM-06:00 PMThu:07:00 AM-06:00 PMFri:07:00 AM-06:00 PMSat:07:00 AM-05:00 PMSun: Closed9/2: Closed"
"https://www.bigotires.com","1940 S Federal Blvd","1940 S Federal Blvd","Denver","CO","80219","US","27000001","303  934 5831","Big O Tires, your auto service experts","39.681391","-105.02457","Mon:07:00 AM-06:00 PMTue:07:00 AM-06:00 PMWed:07:00 AM-06:00 PMThu:07:00 AM-06:00 PMFri:07:00 AM-06:00 PMSat:07:00 AM-05:00 PMSun:09:00 AM-03:00 PM9/2: Closed"
"https://www.bigotires.com","9009 W Colfax Ave","9009 W Colfax Ave","Lakewood","CO","80215","US","26900219","3032320797","Big O Tires, your auto service experts","39.740558","-105.0984","Mon:07:00 AM-06:00 PMTue:07:00 AM-06:00 PMWed:07:00 AM-06:00 PMThu:07:00 AM-06:00 PMFri:07:00 AM-06:00 PMSat:07:00 AM-06:00 PMSun: Closed9/2: Closed"
"https://www.bigotires.com","7425 W 52nd Ave","7425 W 52nd Ave","Arvada","CO","80002","US","26900240","303  421 2881","Big O Tires, your auto service experts","39.791515","-105.078853","Mon:07:00 AM-06:00 PMTue:07:00 AM-06:00 PMWed:07:00 AM-06:00 PMThu:07:00 AM-06:00 PMFri:07:00 AM-06:00 PMSat:07:00 AM-05:00 PMSun: Closed7/4: Closed"
"https://www.bigotires.com","840 W Hampden Ave","840 W Hampden Ave","Englewood","CO","80110","US","26900238","7202791873","Big O Tires, your auto service experts","39.65286","-104.99785","Mon:07:00 AM-06:00 PMTue:07:00 AM-06:00 PMWed:07:00 AM-06:00 PMThu:07:00 AM-06:00 PMFri:07:00 AM-06:00 PMSat:07:00 AM-05:00 PMSun: Closed9/2: Closed"
"https://www.bigotires.com","7500 Pecos St","7500 Pecos St","Denver","CO","80221","US","26900237","7202791955","Big O Tires, your auto service experts","39.83297","-105.005598","Mon:07:30 AM-06:00 PMTue:07:30 AM-06:00 PMWed:07:30 AM-06:00 PMThu:07:30 AM-06:00 PMFri:07:30 AM-06:00 PMSat:08:00 AM-04:00 PMSun: Closed9/2: Closed"
"https://www.bigotires.com","9491 W 44th Ave Ste 105","9491 W 44th Ave Ste 105","Wheat Ridge","CO","80033","US","26900175","303  425 5545","Big O Tires, your auto service experts","39.778627","-105.103294","Mon:07:00 AM-06:00 PMTue:07:00 AM-06:00 PMWed:07:00 AM-06:00 PMThu:07:00 AM-06:00 PMFri:07:00 AM-06:00 PMSat:07:00 AM-04:00 PMSun: Closed9/2: Closed"
"https://www.bigotires.com","1770 S Havana St","1770 S Havana St","Aurora","CO","80012","US","26900180","7206441275","Big O Tires, your auto service experts","39.684187","-104.865333","Mon:07:00 AM-06:00 PMTue:07:00 AM-06:00 PMWed:07:00 AM-06:00 PMThu:07:00 AM-06:00 PMFri:07:00 AM-06:00 PMSat:07:00 AM-05:00 PMSun: Closed9/2: Closed"
"https://www.bigotires.com","320 S Union Blvd","320 S Union Blvd","Lakewood","CO","80228","US","26900179","7205415840","Big O Tires, your auto service experts","39.710855","-105.132596","Mon:07:00 AM-06:00 PMTue:07:00 AM-06:00 PMWed:07:00 AM-06:00 PMThu:07:00 AM-06:00 PMFri:07:00 AM-06:00 PMSat:07:00 AM-05:00 PMSun: Closed7/4: Closed"
"https://www.bigotires.com","4695 Peoria St","4695 Peoria St","Denver","CO","80239","US","26900208","303  307 0331","Big O Tires, your auto service experts","39.781881","-104.847807","Mon:07:00 AM-06:00 PMTue:07:00 AM-06:00 PMWed:07:00 AM-06:00 PMThu:07:00 AM-06:00 PMFri:07:00 AM-06:00 PMSat:07:00 AM-05:00 PMSun: Closed9/2: Closed"
"https://www.bigotires.com","796 S Abilene St","796 S Abilene St","Aurora","CO","80012","US","26900239","720  372 0774","Big O Tires, your auto service experts","39.70234","-104.827533","Mon:07:00 AM-06:00 PMTue:07:00 AM-06:00 PMWed:07:00 AM-06:00 PMThu:07:00 AM-06:00 PMFri:07:00 AM-06:00 PMSat:07:00 AM-06:00 PMSun: Closed9/2: Closed"
"https://www.bigotires.com","15405 E 6th Ave","15405 E 6th Ave","Aurora","CO","80011","US","26900220","303  343 7820","Big O Tires, your auto service experts","39.726011","-104.808472","Mon:07:00 AM-06:00 PMTue:07:00 AM-06:00 PMWed:07:00 AM-06:00 PMThu:07:00 AM-06:00 PMFri:07:00 AM-06:00 PMSat:07:00 AM-06:00 PMSun: Closed9/2: Closed"
"https://www.bigotires.com","3740 E 104th Ave","3740 E 104th Ave","Thornton","CO","80233","US","26900204","3034503393","Big O Tires, your auto service experts","39.884378","-104.943382","Mon:07:00 AM-06:00 PMTue:07:00 AM-06:00 PMWed:07:00 AM-06:00 PMThu:07:00 AM-06:00 PMFri:07:00 AM-06:00 PMSat:07:00 AM-05:00 PMSun: Closed9/2: Closed"
"https://www.bigotires.com","6510 Indiana St","6510 Indiana St","Arvada","CO","80007","US","26900223","3039960001","Big O Tires, your auto service experts","39.814347","-105.164562","Mon:07:00 AM-06:00 PMTue:07:00 AM-06:00 PMWed:07:00 AM-06:00 PMThu:07:00 AM-06:00 PMFri:07:00 AM-06:00 PMSat:07:00 AM-06:00 PMSun: Closed9/2: Closed"
"https://www.bigotires.com","15320 E Iliff Ave","15320 E Iliff Ave","Aurora","CO","80013","US","27900001","303  337 9631","Big O Tires, your auto service experts","39.674516","-104.808776","Mon:08:00 AM-06:00 PMTue:08:00 AM-06:00 PMWed:08:00 AM-06:00 PMThu:08:00 AM-06:00 PMFri:08:00 AM-06:00 PMSat:08:00 AM-05:00 PMSun: Closed9/2: Closed"
"https://www.bigotires.com","9973 W Bowles Ave","9973 W Bowles Ave","Littleton","CO","80123","US","26900218","3039781970","Big O Tires, your auto service experts","39.610077","-105.10825","Mon:07:00 AM-06:00 PMTue:07:00 AM-06:00 PMWed:07:00 AM-06:00 PMThu:07:00 AM-06:00 PMFri:07:00 AM-06:00 PMSat:07:00 AM-06:00 PMSun:09:00 AM-04:00 PM9/2: Closed"
"https://www.bigotires.com","17503 S Golden Rd","17503 S Golden Rd","Golden","CO","80401","US","26900209","303  273 2999","Big O Tires, your auto service experts","39.739958","-105.196455","Mon:07:00 AM-06:00 PMTue:07:00 AM-06:00 PMWed:07:00 AM-06:00 PMThu:07:00 AM-06:00 PMFri:07:00 AM-06:00 PMSat:07:00 AM-05:00 PMSun: Closed9/2: Closed"
"https://www.bigotires.com","8151 E Arapahoe Rd","8151 E Arapahoe Rd","Greenwood Village","CO","80112","US","26900211","7202791814","Big O Tires, your auto service experts","39.596279","-104.894229","Mon:07:00 AM-06:00 PMTue:07:00 AM-06:00 PMWed:07:00 AM-06:00 PMThu:07:00 AM-06:00 PMFri:07:00 AM-06:00 PMSat:07:00 AM-06:00 PMSun:09:00 AM-04:00 PM9/2: Closed"
"https://www.bigotires.com","8110 S University Blvd","8110 S University Blvd","Centennial","CO","80122","US","26900184","3036944700","Big O Tires, your auto service experts","39.569517","-104.960064","Mon:07:00 AM-06:00 PMTue:07:00 AM-06:00 PMWed:07:00 AM-06:00 PMThu:07:00 AM-06:00 PMFri:07:00 AM-06:00 PMSat:07:00 AM-05:00 PMSun: Closed9/2: Closed"
"https://www.bigotires.com","690 E 120th Ave","690 E 120th Ave","Northglenn","CO","80233","US","26900199","3034571604","Big O Tires, your auto service experts","39.913636","-104.978749","Mon:07:00 AM-06:00 PMTue:07:00 AM-06:00 PMWed:07:00 AM-06:00 PMThu:07:00 AM-06:00 PMFri:07:00 AM-06:00 PMSat:07:00 AM-04:00 PMSun: Closed9/2: Closed"
"https://www.bigotires.com","6430 W 120th Ave","6430 W 120th Ave","Broomfield","CO","80020","US","26900189","3034664117","Big O Tires, your auto service experts","39.913393","-105.067627","Mon:07:00 AM-06:00 PMTue:07:00 AM-06:00 PMWed:07:00 AM-06:00 PMThu:07:00 AM-06:00 PMFri:07:00 AM-06:00 PMSat:07:00 AM-04:00 PMSun: Closed9/2: Closed"
"https://www.bigotires.com","18431 E Hampden Ave","18431 E Hampden Ave","Aurora","CO","80013","US","26900202","3037665500","Big O Tires, your auto service experts","39.654363","-104.773044","Mon:07:00 AM-06:00 PMTue:07:00 AM-06:00 PMWed:07:00 AM-06:00 PMThu:07:00 AM-06:00 PMFri:07:00 AM-06:00 PMSat:07:00 AM-05:00 PMSun: Closed9/2: Closed"
"https://www.bigotires.com","6711 S Potomac St","6711 S Potomac St","Centennial","CO","80112","US","26900213","3037902446","Big O Tires, your auto service experts","39.594458","-104.832437","Mon:07:00 AM-06:00 PMTue:07:00 AM-06:00 PMWed:07:00 AM-06:00 PMThu:07:00 AM-06:00 PMFri:07:00 AM-06:00 PMSat:07:00 AM-06:00 PMSun: Closed9/2: Closed"
"https://www.bigotires.com","3510 Town Center Dr","3510 Town Center Dr","Highlands Ranch","CO","80129","US","26900235","303 346 0076","Big O Tires, your auto service experts","39.54708","-105.035","Mon:07:00 AM-06:00 PMTue:07:00 AM-06:00 PMWed:07:00 AM-06:00 PMThu:07:00 AM-06:00 PMFri:07:00 AM-06:00 PMSat:07:00 AM-06:00 PMSun: Closed9/2: Closed"
"https://www.bigotires.com","9875 W Remington Pl","9875 W Remington Pl","Littleton","CO","80128","US","26900233","7204652852","Big O Tires, your auto service experts","39.565899","-105.108589","Mon:07:00 AM-06:00 PMTue:07:00 AM-06:00 PMWed:07:00 AM-06:00 PMThu:07:00 AM-06:00 PMFri:07:00 AM-06:00 PMSat:07:00 AM-06:00 PMSun:09:00 AM-04:00 PM9/2: Closed"
"https://www.bigotires.com","593 Summit Blvd","593 Summit Blvd","Broomfield","CO","80021","US","26900215","3039516000","Big O Tires, your auto service experts","39.928188","-105.138297","Mon:07:00 AM-06:00 PMTue:07:00 AM-06:00 PMWed:07:00 AM-06:00 PMThu:07:00 AM-06:00 PMFri:07:00 AM-06:00 PMSat:07:00 AM-06:00 PMSun:09:00 AM-04:00 PM9/2: Closed"
"https://www.bigotires.com","22994 E Smoky Hill Rd","22994 E Smoky Hill Rd","Aurora","CO","80016","US","26900201","3036805500","Big O Tires, your auto service experts","39.60067","-104.720573","Mon:07:30 AM-06:00 PMTue:07:30 AM-06:00 PMWed:07:30 AM-06:00 PMThu:07:30 AM-06:00 PMFri:07:30 AM-06:00 PMSat:08:00 AM-05:00 PMSun: Closed"
"https://www.bigotires.com","29032 Crossroads Ln","29032 Crossroads Ln","Evergreen","CO","80439","US","26900210","303  526 1100","Big O Tires, your auto service experts","39.698667","-105.330373","Mon:07:00 AM-06:00 PMTue:07:00 AM-06:00 PMWed:07:00 AM-06:00 PMThu:07:00 AM-06:00 PMFri:07:00 AM-06:00 PMSat:07:00 AM-05:00 PMSun: Closed9/2: Closed"
"https://www.bigotires.com","1301 E South Boulder Rd","1301 E South Boulder Rd","Louisville","CO","80027","US","26900185","7202305819","Big O Tires, your auto service experts","39.988448","-105.127379","Mon:07:30 AM-06:00 PMTue:07:30 AM-06:00 PMWed:07:30 AM-06:00 PMThu:07:30 AM-06:00 PMFri:07:30 AM-06:00 PMSat:07:30 AM-05:00 PMSun: Closed7/4: Closed"
"https://www.bigotires.com","10431 Parkglenn Way","10431 Parkglenn Way","Parker","CO","80138","US","26900216","303  840 2800","Big O Tires, your auto service experts","39.527694","-104.765594","Mon:07:00 AM-06:00 PMTue:07:00 AM-06:00 PMWed:07:00 AM-06:00 PMThu:07:00 AM-06:00 PMFri:07:00 AM-06:00 PMSat:07:00 AM-04:00 PMSun: Closed9/2: Closed"
"https://www.bigotires.com","508 E Castle Pines Pkwy","508 E Castle Pines Pkwy","Castle Pines","CO","80108","US","26900222","720  733 1707","Big O Tires, your auto service experts","39.471422","-104.876702","Mon:07:00 AM-06:00 PMTue:07:00 AM-06:00 PMWed:07:00 AM-06:00 PMThu:07:00 AM-06:00 PMFri:07:00 AM-06:00 PMSat:07:00 AM-06:00 PMSun:09:00 AM-04:00 PM9/2: Closed"
"https://www.bigotires.com","26237 Conifer Rd","26237 Conifer Rd","Conifer","CO","80433","US","26900195","3038167088","Big O Tires, your auto service experts","39.540479","-105.299147","Mon:08:00 AM-06:00 PMTue:08:00 AM-06:00 PMWed:08:00 AM-06:00 PMThu:08:00 AM-06:00 PMFri:08:00 AM-06:00 PMSat:08:00 AM-04:00 PMSun: Closed"
"https://www.bigotires.com","3000 Valmont Rd","3000 Valmont Rd","Boulder","CO","80301","US","26900214","303  449 5393","Big O Tires, your auto service experts","40.028915","-105.253266","Mon:07:00 AM-06:00 PMTue:07:00 AM-06:00 PMWed:07:00 AM-06:00 PMThu:07:00 AM-06:00 PMFri:07:00 AM-06:00 PMSat:07:00 AM-06:00 PMSun:09:00 AM-04:00 PM9/2: Closed"
"https://www.bigotires.com","750 S Perry St","750 S Perry St","Castle Rock","CO","80104","US","26900186","3036888804","Big O Tires, your auto service experts","39.363476","-104.861077","Mon:07:00 AM-06:00 PMTue:07:00 AM-06:00 PMWed:07:00 AM-06:00 PMThu:07:00 AM-06:00 PMFri:07:00 AM-06:00 PMSat:07:00 AM-04:00 PMSun: Closed9/2: Closed"
"https://www.bigotires.com","1205 S Main St","1205 S Main St","Longmont","CO","80501","US","26900183","7204879439","Big O Tires, your auto service experts","40.144825","-105.102967","Mon:07:00 AM-06:00 PMTue:07:00 AM-06:00 PMWed:07:00 AM-06:00 PMThu:07:00 AM-06:00 PMFri:07:00 AM-06:00 PMSat:07:00 AM-05:00 PMSun: Closed9/2: Closed"
"https://www.bigotires.com","140 Elizabeth St","140 Elizabeth St","Elizabeth","CO","80107","US","26900200","3036466442","Big O Tires, your auto service experts","39.361104","-104.611127","Mon:07:00 AM-06:00 PMTue:07:00 AM-06:00 PMWed:07:00 AM-06:00 PMThu:07:00 AM-06:00 PMFri:07:00 AM-06:00 PMSat:07:00 AM-04:00 PMSun: Closed"
"https://www.bigotires.com","650 Colorado 105","650 Colorado 105","Monument","CO","80132","US","26900191","7194882299","Big O Tires, your auto service experts","39.098111","-104.866852","Mon:07:00 AM-06:00 PMTue:07:00 AM-06:00 PMWed:07:00 AM-06:00 PMThu:07:00 AM-06:00 PMFri:07:00 AM-06:00 PMSat:07:00 AM-04:00 PMSun: Closed"
"https://www.bigotires.com","3325 23rd Ave","3325 23rd Ave","Greeley","CO","80634","US","26900194","9703308115","Big O Tires, your auto service experts","40.382392","-104.716246","Mon:08:00 AM-06:00 PMTue:08:00 AM-06:00 PMWed:08:00 AM-06:00 PMThu:08:00 AM-06:00 PMFri:08:00 AM-06:00 PMSat:08:00 AM-05:00 PMSun: Closed"
"https://www.bigotires.com","2480 N Lincoln Ave","2480 N Lincoln Ave","Loveland","CO","80538","US","26900182","9706676074","Big O Tires, your auto service experts","40.41789","-105.072616","Mon:07:30 AM-06:00 PMTue:07:30 AM-06:00 PMWed:07:30 AM-06:00 PMThu:07:30 AM-06:00 PMFri:07:30 AM-06:00 PMSat:07:30 AM-05:00 PMSun: Closed"
"https://www.bigotires.com","555 Chester Ave","555 Chester Ave","Woodland Park","CO","80863","US","26900197","7193625093","Big O Tires, your auto service experts","38.990912","-105.047368","Mon:07:30 AM-05:30 PMTue:07:30 AM-05:30 PMWed:07:30 AM-05:30 PMThu:07:30 AM-05:30 PMFri:07:30 AM-05:30 PMSat:07:30 AM-04:00 PMSun: Closed"
"https://www.bigotires.com","1633 Raven Ave","1633 Raven Ave","Estes Park","CO","80517","US","26900236","9705868085","Big O Tires, your auto service experts","40.383317","-105.494982","Mon:08:00 AM-05:30 PMTue:08:00 AM-05:30 PMWed:08:00 AM-05:30 PMThu:08:00 AM-05:30 PMFri:08:00 AM-05:30 PMSat:08:00 AM-04:00 PMSun: Closed"
"https://www.bigotires.com","4245 S Mason St","4245 S Mason St","Fort Collins","CO","80525","US","26900203","9702230415","Big O Tires, your auto service experts","40.528347","-105.079935","Mon:08:00 AM-06:00 PMTue:08:00 AM-06:00 PMWed:08:00 AM-06:00 PMThu:08:00 AM-06:00 PMFri:08:00 AM-06:00 PMSat:08:00 AM-05:00 PMSun: Closed"
"https://www.bigotires.com","3575 Hartsel Rd","3575 Hartsel Rd","Colorado Springs","CO","80920","US","26900205","719  268 9988","Big O Tires, your auto service experts","38.938351","-104.75992","Mon:07:00 AM-06:00 PMTue:07:00 AM-06:00 PMWed:07:00 AM-06:00 PMThu:07:00 AM-06:00 PMFri:07:00 AM-06:00 PMSat:07:00 AM-04:00 PMSun: Closed"
"https://www.bigotires.com","2007 Timberline Rd","2007 Timberline Rd","Fort Collins","CO","80525","US","26900221","9703055553","Big O Tires, your auto service experts","40.560944","-105.039887","Mon:08:00 AM-06:00 PMTue:08:00 AM-06:00 PMWed:08:00 AM-06:00 PMThu:08:00 AM-06:00 PMFri:08:00 AM-06:00 PMSat:08:00 AM-05:00 PMSun: Closed"
"https://www.bigotires.com","6985 Old Meridian Rd","6985 Old Meridian Rd","Falcon","CO","80831","US","26900241","7195592446","Big O Tires, your auto service experts","38.933662","-104.610992","Mon:07:00 AM-06:00 PMTue:07:00 AM-06:00 PMWed:07:00 AM-06:00 PMThu:07:00 AM-06:00 PMFri:07:00 AM-06:00 PMSat:07:00 AM-04:00 PMSun: Closed"
"https://www.bigotires.com","4496 Austin Bluffs Pkwy","4496 Austin Bluffs Pkwy","Colorado Springs","CO","80918","US","26900206","719  599 4555","Big O Tires, your auto service experts","38.897504","-104.74851","Mon:07:30 AM-05:30 PMTue:07:30 AM-05:30 PMWed:07:30 AM-05:30 PMThu:07:30 AM-05:30 PMFri:07:30 AM-05:30 PMSat:07:30 AM-04:00 PMSun: Closed"
"https://www.bigotires.com","820 N Summit Blvd","820 N Summit Blvd","Frisco","CO","80443","US","26900228","970  668 1446","Big O Tires, your auto service experts","39.586316","-106.095221","Mon:07:00 AM-06:00 PMTue:07:00 AM-06:00 PMWed:07:00 AM-06:00 PMThu:07:00 AM-06:00 PMFri:07:00 AM-06:00 PMSat:07:00 AM-04:00 PMSun:09:00 AM-02:00 PM7/4: Closed"
"https://www.bigotires.com","1506 N College Ave","1506 N College Ave","Fort Collins","CO","80524","US","26900188","9704933356","Big O Tires, your auto service experts","40.607572","-105.076084","Mon:08:00 AM-06:00 PMTue:08:00 AM-06:00 PMWed:08:00 AM-06:00 PMThu:08:00 AM-06:00 PMFri:08:00 AM-06:00 PMSat:08:00 AM-05:00 PMSun: Closed"
"https://www.bigotires.com","806 E Fillmore St","806 E Fillmore St","Colorado Springs","CO","80907","US","26900176","719  520 0722","Big O Tires, your auto service experts","38.8744","-104.810568","Mon:07:30 AM-05:30 PMTue:07:30 AM-05:30 PMWed:07:30 AM-05:30 PMThu:07:30 AM-05:30 PMFri:07:30 AM-05:30 PMSat:07:30 AM-04:00 PMSun: Closed"
"https://www.bigotires.com","5820 Omaha Blvd","5820 Omaha Blvd","Colorado Springs","CO","80915","US","26900187","7195501840","Big O Tires, your auto service experts","38.854399","-104.719592","Mon:07:30 AM-06:00 PMTue:07:30 AM-06:00 PMWed:07:30 AM-06:00 PMThu:07:30 AM-06:00 PMFri:07:30 AM-06:00 PMSat:08:00 AM-04:00 PMSun: Closed"
"https://www.bigotires.com","1611 S Nevada Ave","1611 S Nevada Ave","Colorado Springs","CO","80905","US","26900198","719  473 7089","Big O Tires, your auto service experts","38.810951","-104.821767","Mon:07:30 AM-05:30 PMTue:07:30 AM-05:30 PMWed:07:30 AM-05:30 PMThu:07:30 AM-05:30 PMFri:07:30 AM-05:30 PMSat:07:30 AM-04:00 PMSun: Closed"
"https://www.bigotires.com","6650 Camden Blvd","6650 Camden Blvd","Fountain","CO","80817","US","26900178","7199004182","Big O Tires, your auto service experts","38.744154","-104.738327","Mon:07:30 AM-05:30 PMTue:07:30 AM-05:30 PMWed:07:30 AM-05:30 PMThu:07:30 AM-05:30 PMFri:07:30 AM-05:30 PMSat:07:30 AM-04:00 PMSun: Closed"
"https://www.bigotires.com","41121 Highway 6","41121 Highway 6","Avon","CO","81620","US","26900231","970  845 8473","Big O Tires, your auto service experts","39.622062","-106.474329","Mon:07:00 AM-06:00 PMTue:07:00 AM-06:00 PMWed:07:00 AM-06:00 PMThu:07:00 AM-06:00 PMFri:07:00 AM-06:00 PMSat:07:00 AM-04:00 PMSun: Closed7/4: Closed"
"https://www.bigotires.com","3030 E Main St","3030 E Main St","Canon City","CO","81212","US","26900196","7192854730","Big O Tires, your auto service experts","38.446346","-105.196332","Mon:07:00 AM-06:00 PMTue:07:00 AM-06:00 PMWed:07:00 AM-06:00 PMThu:07:00 AM-06:00 PMFri:07:00 AM-06:00 PMSat:07:00 AM-05:00 PMSun: Closed9/2: Closed7/4: Closed"
"https://www.bigotires.com","3714 East Lincoln Way","3714 East Lincoln Way","Cheyenne","WY","82001","US","26900472","3076374294","Big O Tires, your auto service experts","41.140682","-104.764798","Mon:07:30 AM-06:00 PMTue:07:30 AM-06:00 PMWed:07:30 AM-06:00 PMThu:07:30 AM-06:00 PMFri:07:30 AM-06:00 PMSat:07:30 AM-04:00 PMSun: Closed"
"https://www.bigotires.com","5510 Yellowstone Rd","5510 Yellowstone Rd","Cheyenne","WY","82009","US","26900475","3072748475","Big O Tires, your auto service experts","41.169885","-104.829224","Mon:07:30 AM-06:00 PMTue:07:30 AM-06:00 PMWed:07:30 AM-06:00 PMThu:07:30 AM-06:00 PMFri:07:30 AM-06:00 PMSat:07:30 AM-04:00 PMSun: Closed"
"https://www.bigotires.com","5570 E Highway 50","5570 E Highway 50","Salida","CO","81201","US","26900192","7195393585","Big O Tires, your auto service experts","38.515393","-105.979621","Mon:08:00 AM-05:30 PMTue:08:00 AM-05:30 PMWed:08:00 AM-05:30 PMThu:08:00 AM-05:30 PMFri:08:00 AM-05:30 PMSat:08:00 AM-04:00 PMSun: Closed"
"https://www.bigotires.com","430 Eagleridge Blvd","430 Eagleridge Blvd","Pueblo","CO","81008","US","26900190","7195469820","Big O Tires, your auto service experts","38.319754","-104.613881","Mon:08:00 AM-06:00 PMTue:08:00 AM-06:00 PMWed:08:00 AM-06:00 PMThu:08:00 AM-06:00 PMFri:08:00 AM-06:00 PMSat:08:00 AM-06:00 PMSun: Closed"
"https://www.bigotires.com","3307 Memorial Blvd","3307 Memorial Blvd","Murfreesboro","TN","37129","US","26900413","615 624 4943","Big O Tires, your auto service experts","35.90671","-86.38423","Mon:07:30 AM-06:00 PMTue:07:30 AM-06:00 PMWed:07:30 AM-06:00 PMThu:07:30 AM-06:00 PMFri:07:30 AM-06:00 PMSat:08:00 AM-05:00 PMSun: Closed"
"https://www.bigotires.com","1975 Russellville Rd","1975 Russellville Rd","Bowling Green","KY","42101","US","26900312","2708432181","Big O Tires, your auto service experts","36.97708","-86.470752","Mon:07:30 AM-06:00 PMTue:07:30 AM-06:00 PMWed:07:30 AM-06:00 PMThu:07:30 AM-06:00 PMFri:07:30 AM-06:00 PMSat:07:30 AM-02:00 PMSun: Closed"
"https://www.bigotires.com","209 Smith Rd","209 Smith Rd","Glasgow","KY","42141","US","26900311","2706294200","Big O Tires, your auto service experts","37.006608","-85.923224","Mon:07:30 AM-06:00 PMTue:07:30 AM-06:00 PMWed:07:30 AM-06:00 PMThu:07:30 AM-06:00 PMFri:07:30 AM-06:00 PMSat:07:30 AM-03:00 PMSun: Closed"
"https://www.bigotires.com","609 Mill St","609 Mill St","Leitchfield","KY","42754","US","26900308","2702595755","Big O Tires, your auto service experts","37.484503","-86.285112","Mon:07:00 AM-05:00 PMTue:07:00 AM-05:00 PMWed:07:00 AM-05:00 PMThu:07:00 AM-05:00 PMFri:07:00 AM-05:00 PMSat:07:00 AM-02:00 PMSun: Closed"
"https://www.bigotires.com","904 S Broadway","904 S Broadway","Edmond","OK","73034","US","26900405","4057261502","Big O Tires, your auto service experts","35.645007","-97.481914","Mon:07:30 AM-06:00 PMTue:07:30 AM-06:00 PMWed:07:30 AM-06:00 PMThu:07:30 AM-06:00 PMFri:07:30 AM-06:00 PMSat:08:00 AM-04:00 PMSun: Closed"
"https://www.bigotires.com","401 N Mustang Rd","401 N Mustang Rd","Mustang","OK","73064","US","26900409","4052373232","Big O Tires, your auto service experts","35.395009","-97.725","Mon:07:00 AM-06:00 PMTue:07:00 AM-06:00 PMWed:07:00 AM-06:00 PMThu:07:00 AM-06:00 PMFri:07:00 AM-06:00 PMSat:07:00 AM-05:00 PMSun: Closed9/2: Closed"
"https://www.bigotires.com","1100 W Vandament Ave","1100 W Vandament Ave","Yukon","OK","73099","US","26900406","4053546968","Big O Tires, your auto service experts","35.492981","-97.761626","Mon:07:30 AM-06:00 PMTue:07:30 AM-06:00 PMWed:07:30 AM-06:00 PMThu:07:30 AM-06:00 PMFri:07:30 AM-06:00 PMSat:07:30 AM-05:00 PMSun: Closed7/4: Closed"
"https://www.bigotires.com","1481 Alameda St","1481 Alameda St","Norman","OK","73071","US","26900408","4057014988","Big O Tires, your auto service experts","35.21885","-97.41926","Mon:07:00 AM-06:00 PMTue:07:00 AM-06:00 PMWed:07:00 AM-06:00 PMThu:07:00 AM-06:00 PMFri:07:00 AM-06:00 PMSat:07:00 AM-05:00 PMSun: Closed9/2: Closed"
"https://www.bigotires.com","4212 W Owen K Garriott Rd","4212 W Owen K Garriott Rd","Enid","OK","73703","US","26900407","5802332172","Big O Tires, your auto service experts","36.391631","-97.930192","Mon:07:00 AM-06:00 PMTue:07:00 AM-06:00 PMWed:07:00 AM-06:00 PMThu:07:00 AM-06:00 PMFri:07:00 AM-06:00 PMSat:07:00 AM-05:00 PMSun: Closed9/2: Closed"
"https://www.bigotires.com","6101 Shepherdsville Rd","6101 Shepherdsville Rd","Louisville","KY","40228","US","26900295","502 792 7953","Big O Tires, your auto service experts","38.159689","-85.659465","Mon:08:00 AM-06:00 PMTue:08:00 AM-06:00 PMWed:08:00 AM-06:00 PMThu:08:00 AM-06:00 PMFri:08:00 AM-06:00 PMSat:08:00 AM-03:00 PMSun: Closed"
"https://www.bigotires.com","9414 Taylorsville Rd","9414 Taylorsville Rd","Jeffersontown","KY","40299","US","26900289","502  267 7440","Big O Tires, your auto service experts","38.206702","-85.582955","Mon:08:00 AM-06:00 PMTue:08:00 AM-06:00 PMWed:08:00 AM-06:00 PMThu:08:00 AM-06:00 PMFri:08:00 AM-06:00 PMSat:08:00 AM-03:00 PMSun: Closed"
"https://www.bigotires.com","3623 Lexington Rd","3623 Lexington Rd","Louisville","KY","40207","US","26900287","502  896 8441","Big O Tires, your auto service experts","38.251893","-85.661395","Mon:08:00 AM-06:00 PMTue:08:00 AM-06:00 PMWed:08:00 AM-06:00 PMThu:08:00 AM-06:00 PMFri:08:00 AM-06:00 PMSat:08:00 AM-03:00 PMSun: Closed9/2: Closed"
"https://www.bigotires.com","7935 Fegenbush Ln","7935 Fegenbush Ln","Louisville","KY","40228","US","26900298","5022394040","Big O Tires, your auto service experts","38.138002","-85.613708","Mon:08:00 AM-06:00 PMTue:08:00 AM-06:00 PMWed:08:00 AM-06:00 PMThu:08:00 AM-06:00 PMFri:08:00 AM-06:00 PMSat:08:00 AM-03:00 PMSun: Closed9/2: Closed"
"https://www.bigotires.com","11910 Shelbyville Rd","11910 Shelbyville Rd","Louisville","KY","40243","US","26900291","5029071991","Big O Tires, your auto service experts","38.248178","-85.53484","Mon:08:00 AM-06:00 PMTue:08:00 AM-06:00 PMWed:08:00 AM-06:00 PMThu:08:00 AM-06:00 PMFri:08:00 AM-06:00 PMSat:08:00 AM-03:00 PMSun: Closed9/2: Closed"
"https://www.bigotires.com","268 Market Place Dr","268 Market Place Dr","Louisville","KY","40229","US","26900304","5029551320","Big O Tires, your auto service experts","38.073787","-85.670703","Mon:08:00 AM-06:00 PMTue:08:00 AM-06:00 PMWed:08:00 AM-06:00 PMThu:08:00 AM-06:00 PMFri:08:00 AM-06:00 PMSat:08:00 AM-03:00 PMSun: Closed"
"https://www.bigotires.com","195 Outer Loop","195 Outer Loop","Louisville","KY","40214","US","26900292","5023613543","Big O Tires, your auto service experts","38.126744","-85.773826","Mon:08:00 AM-06:00 PMTue:08:00 AM-06:00 PMWed:08:00 AM-06:00 PMThu:08:00 AM-06:00 PMFri:08:00 AM-06:00 PMSat:08:00 AM-03:00 PMSun: Closed"
"https://www.bigotires.com","3751 Pamela Rae Dr","3751 Pamela Rae Dr","Louisville","KY","40241","US","26900303","502  412 1119","Big O Tires, your auto service experts","38.301639","-85.543589","Mon:08:00 AM-06:00 PMTue:08:00 AM-06:00 PMWed:08:00 AM-06:00 PMThu:08:00 AM-06:00 PMFri:08:00 AM-06:00 PMSat:08:00 AM-03:00 PMSun: Closed9/2: Closed"
"https://www.bigotires.com","2550 Allison Ln","2550 Allison Ln","Jeffersonville","IN","47130","US","26900259","8122822325","Big O Tires, your auto service experts","38.320255","-85.709761","Mon:08:00 AM-06:00 PMTue:08:00 AM-06:00 PMWed:08:00 AM-06:00 PMThu:08:00 AM-06:00 PMFri:08:00 AM-06:00 PMSat:08:00 AM-03:00 PMSun: Closed9/2: Closed"
"https://www.bigotires.com","1209 Eastern Blvd","1209 Eastern Blvd","Clarksville","IN","47129","US","26900262","812 670 5883","Big O Tires, your auto service experts","38.306623","-85.768374","Mon:07:30 AM-06:00 PMTue:07:30 AM-06:00 PMWed:07:30 AM-06:00 PMThu:07:30 AM-06:00 PMFri:07:30 AM-06:00 PMSat:07:30 AM-03:00 PMSun: Closed9/2: Closed"
"https://www.bigotires.com","4413 Cane Run Rd","4413 Cane Run Rd","Louisville","KY","40216","US","26900290","5024479633","Big O Tires, your auto service experts","38.19809","-85.83837","Mon:08:00 AM-06:00 PMTue:08:00 AM-06:00 PMWed:08:00 AM-06:00 PMThu:08:00 AM-06:00 PMFri:08:00 AM-06:00 PMSat:08:00 AM-03:00 PMSun: Closed9/2: Closed"
"https://www.bigotires.com","2245 State St","2245 State St","New Albany","IN","47150","US","26900251","8129490736","Big O Tires, your auto service experts","38.307505","-85.842985","Mon:07:30 AM-06:00 PMTue:07:30 AM-06:00 PMWed:07:30 AM-06:00 PMThu:07:30 AM-06:00 PMFri:07:30 AM-06:00 PMSat:07:30 AM-03:00 PMSun: Closed"
"https://www.bigotires.com","615 N Buckman St","615 N Buckman St","Shepherdsville","KY","40165","US","26900296","5025433041","Big O Tires, your auto service experts","37.998023","-85.712412","Mon:08:00 AM-06:00 PMTue:08:00 AM-06:00 PMWed:08:00 AM-06:00 PMThu:08:00 AM-06:00 PMFri:08:00 AM-06:00 PMSat:08:00 AM-03:00 PMSun: Closed"
"https://www.bigotires.com","12614 Dixie Hwy","12614 Dixie Hwy","Louisville","KY","40272","US","26900288","5029373885","Big O Tires, your auto service experts","38.072461","-85.885095","Mon:08:00 AM-06:00 PMTue:08:00 AM-06:00 PMWed:08:00 AM-06:00 PMThu:08:00 AM-06:00 PMFri:08:00 AM-06:00 PMSat:08:00 AM-03:00 PMSun: Closed9/2: Closed"
"https://www.bigotires.com","900 S Highway 53","900 S Highway 53","La Grange","KY","40031","US","26900301","5025654122","Big O Tires, your auto service experts","38.396428","-85.369838","Mon:07:00 AM-06:00 PMTue:07:00 AM-06:00 PMWed:07:00 AM-06:00 PMThu:07:00 AM-06:00 PMFri:07:00 AM-06:00 PMSat:07:00 AM-03:00 PMSun: Closed9/2: Closed"
"https://www.bigotires.com","2231 Shelbyville Rd","2231 Shelbyville Rd","Shelbyville","KY","40065","US","26900306","5022578422","Big O Tires, your auto service experts","38.214487","-85.260768","Mon:07:30 AM-06:00 PMTue:07:30 AM-06:00 PMWed:07:30 AM-06:00 PMThu:07:30 AM-06:00 PMFri:07:30 AM-06:00 PMSat:07:30 AM-03:00 PMSun: Closed9/2: Closed"
"https://www.bigotires.com","1969 Gardner Ln NW","1969 Gardner Ln NW","Corydon","IN","47112","US","27500001","8127388282","Big O Tires, your auto service experts","38.229346","-86.137103","Mon:08:00 AM-06:00 PMTue:08:00 AM-06:00 PMWed:08:00 AM-06:00 PMThu:08:00 AM-06:00 PMFri:08:00 AM-06:00 PMSat:08:00 AM-03:00 PMSun: Closed"
"https://www.bigotires.com","618 Bloomfield Rd","618 Bloomfield Rd","Bardstown","KY","40004","US","26900302","5023480880","Big O Tires, your auto service experts","37.815006","-85.449225","Mon:08:00 AM-06:00 PMTue:08:00 AM-06:00 PMWed:08:00 AM-06:00 PMThu:08:00 AM-06:00 PMFri:08:00 AM-06:00 PMSat:08:00 AM-03:00 PMSun: Closed"
"https://www.bigotires.com","1470 N Dixie Blvd","1470 N Dixie Blvd","Radcliff","KY","40160","US","26900294","270  351 1133","Big O Tires, your auto service experts","37.856198","-85.952415","Mon:08:00 AM-06:00 PMTue:08:00 AM-06:00 PMWed:08:00 AM-06:00 PMThu:08:00 AM-06:00 PMFri:08:00 AM-06:00 PMSat:08:00 AM-03:00 PMSun: Closed"
"https://www.bigotires.com","333 Broadway St","333 Broadway St","Brandenburg","KY","40108","US","26900293","2704223977","Big O Tires, your auto service experts","37.998061","-86.168309","Mon:08:00 AM-06:00 PMTue:08:00 AM-06:00 PMWed:08:00 AM-06:00 PMThu:08:00 AM-06:00 PMFri:08:00 AM-06:00 PMSat:08:00 AM-01:00 PMSun: Closed9/2: Closed"
"https://www.bigotires.com","1112 N Dixie Hwy","1112 N Dixie Hwy","Elizabethtown","KY","42701","US","26900297","2706000020","Big O Tires, your auto service experts","37.717407","-85.879522","Mon:08:00 AM-06:00 PMTue:08:00 AM-06:00 PMWed:08:00 AM-06:00 PMThu:08:00 AM-06:00 PMFri:08:00 AM-06:00 PMSat:08:00 AM-03:00 PMSun: Closed"
"https://www.bigotires.com","9 Carson Pl","9 Carson Pl","Frankfort","KY","40601","US","26900300","5022238515","Big O Tires, your auto service experts","38.180179","-84.893607","Mon:08:00 AM-06:00 PMTue:08:00 AM-06:00 PMWed:08:00 AM-06:00 PMThu:08:00 AM-06:00 PMFri:08:00 AM-06:00 PMSat:08:00 AM-03:00 PMSun: Closed"
"https://www.bigotires.com","773 W Main St","773 W Main St","Lebanon","KY","40033","US","26900307","270  692 1013","Big O Tires, your auto service experts","37.560168","-85.272154","Mon:08:00 AM-05:00 PMTue:08:00 AM-05:00 PMWed:08:00 AM-05:00 PMThu:08:00 AM-05:00 PMFri:08:00 AM-05:00 PMSat:08:00 AM-03:00 PMSun: Closed"
"https://www.bigotires.com","1016 Old Hwy 60","1016 Old Hwy 60","Hardinsburg","KY","40143","US","26900299","2707566211","Big O Tires, your auto service experts","37.771721","-86.443662","Mon:07:00 AM-05:00 PMTue:07:00 AM-05:00 PMWed:07:00 AM-05:00 PMThu:07:00 AM-05:00 PMFri:07:00 AM-05:00 PMSat:07:00 AM-02:00 PMSun: Closed"
"https://www.bigotires.com","161 Southgate Dr","161 Southgate Dr","Georgetown","KY","40324","US","26900310","5023166107","Big O Tires, your auto service experts","38.183451","-84.557315","Mon:07:30 AM-06:00 PMTue:07:30 AM-06:00 PMWed:07:30 AM-06:00 PMThu:07:30 AM-06:00 PMFri:07:30 AM-06:00 PMSat:07:30 AM-04:00 PMSun: Closed9/2: Closed"
"https://www.bigotires.com","141 W Lowry Ln","141 W Lowry Ln","Lexington","KY","40503","US","26900309","8592751600","Big O Tires, your auto service experts","38.006477","-84.519566","Mon:07:30 AM-06:00 PMTue:07:30 AM-06:00 PMWed:07:30 AM-06:00 PMThu:07:30 AM-06:00 PMFri:07:30 AM-06:00 PMSat:07:30 AM-04:00 PMSun: Closed9/2: Closed"
"https://www.bigotires.com","642 3rd Ave","642 3rd Ave","Jasper","IN","47546","US","26900257","8124825402","Big O Tires, your auto service experts","38.379081","-86.918079","Mon:07:30 AM-06:00 PMTue:07:30 AM-06:00 PMWed:07:30 AM-06:00 PMThu:07:30 AM-06:00 PMFri:07:30 AM-06:00 PMSat:07:30 AM-03:00 PMSun: Closed"
"https://www.bigotires.com","3415 S Maryland Pkwy","3415 S Maryland Pkwy","Las Vegas","NV","89169","US","26900379","7027357187","Big O Tires, your auto service experts","36.127615","-115.137557","Mon:07:00 AM-06:00 PMTue:07:00 AM-06:00 PMWed:07:00 AM-06:00 PMThu:07:00 AM-06:00 PMFri:07:00 AM-06:00 PMSat:07:00 AM-06:00 PMSun:08:00 AM-05:00 PM"
"https://www.bigotires.com","787 N Nellis Blvd","787 N Nellis Blvd","Las Vegas","NV","89110","US","26900381","7024383282","Big O Tires, your auto service experts","36.176906","-115.062704","Mon:07:00 AM-06:00 PMTue:07:00 AM-06:00 PMWed:07:00 AM-06:00 PMThu:07:00 AM-06:00 PMFri:07:00 AM-06:00 PMSat:07:00 AM-06:00 PMSun:08:00 AM-05:00 PM"
"https://www.bigotires.com","2061 Rock Springs Dr","2061 Rock Springs Dr","Las Vegas","NV","89128","US","26900377","7023609800","Big O Tires, your auto service experts","36.197066","-115.247391","Mon:07:00 AM-06:00 PMTue:07:00 AM-06:00 PMWed:07:00 AM-06:00 PMThu:07:00 AM-06:00 PMFri:07:00 AM-06:00 PMSat:07:00 AM-06:00 PMSun:08:00 AM-05:00 PM"
"https://www.bigotires.com","4520 N Rancho Dr","4520 N Rancho Dr","Las Vegas","NV","89130","US","26900376","7026567499","Big O Tires, your auto service experts","36.241892","-115.233904","Mon:07:00 AM-06:00 PMTue:07:00 AM-06:00 PMWed:07:00 AM-06:00 PMThu:07:00 AM-06:00 PMFri:07:00 AM-06:00 PMSat:07:00 AM-06:00 PMSun:08:00 AM-05:00 PM"
"https://www.bigotires.com","170 N Pecos Rd","170 N Pecos Rd","Henderson","NV","89074","US","26900380","7022639333","Big O Tires, your auto service experts","36.040754","-115.099155","Mon:07:00 AM-06:00 PMTue:07:00 AM-06:00 PMWed:07:00 AM-06:00 PMThu:07:00 AM-06:00 PMFri:07:00 AM-06:00 PMSat:07:00 AM-06:00 PMSun:08:00 AM-05:00 PM"
"https://www.bigotires.com","3625 S Fort Apache Rd","3625 S Fort Apache Rd","Las Vegas","NV","89147","US","26900378","7025622213","Big O Tires, your auto service experts","36.123985","-115.297429","Mon:07:00 AM-06:00 PMTue:07:00 AM-06:00 PMWed:07:00 AM-06:00 PMThu:07:00 AM-06:00 PMFri:07:00 AM-06:00 PMSat:07:00 AM-06:00 PMSun:08:00 AM-05:00 PM"
"https://www.bigotires.com","7145 S Rainbow Blvd","7145 S Rainbow Blvd","Las Vegas","NV","89118","US","26900383","7022630411","Big O Tires, your auto service experts","36.058972","-115.243704","Mon:07:00 AM-06:00 PMTue:07:00 AM-06:00 PMWed:07:00 AM-06:00 PMThu:07:00 AM-06:00 PMFri:07:00 AM-06:00 PMSat:07:00 AM-06:00 PMSun:08:00 AM-05:00 PM"
"https://www.bigotires.com","10127 W Charleston Blvd","10127 W Charleston Blvd","Las Vegas","NV","89135","US","26900374","7028698299","Big O Tires, your auto service experts","36.158605","-115.31594","Mon:07:00 AM-06:00 PMTue:07:00 AM-06:00 PMWed:07:00 AM-06:00 PMThu:07:00 AM-06:00 PMFri:07:00 AM-06:00 PMSat:07:00 AM-06:00 PMSun:08:00 AM-05:00 PM"
"https://www.bigotires.com","6060 Centennial Center Blvd","6060 Centennial Center Blvd","Las Vegas","NV","89149","US","26900375","7023964241","Big O Tires, your auto service experts","36.272899","-115.264451","Mon:07:00 AM-06:00 PMTue:07:00 AM-06:00 PMWed:07:00 AM-06:00 PMThu:07:00 AM-06:00 PMFri:07:00 AM-06:00 PMSat:07:00 AM-06:00 PMSun:08:00 AM-05:00 PM"
"https://www.bigotires.com","15 S Gibson Rd","15 S Gibson Rd","Henderson","NV","89012","US","26900382","7025583171","Big O Tires, your auto service experts","36.030751","-115.03062","Mon:07:00 AM-06:00 AMTue:07:00 AM-06:00 PMWed:07:00 AM-06:00 PMThu:07:00 AM-06:00 PMFri:07:00 AM-06:00 PMSat:07:00 AM-06:00 PMSun:08:00 AM-05:00 PM"
"https://www.bigotires.com","828 S Boulder Hwy","828 S Boulder Hwy","Henderson","NV","89015","US","26900385","7025582121","Big O Tires, your auto service experts","36.026694","-114.966252","Mon:07:00 AM-06:00 PMTue:07:00 AM-06:00 PMWed:07:00 AM-06:00 PMThu:07:00 AM-06:00 PMFri:07:00 AM-06:00 PMSat:07:00 AM-06:00 PMSun:08:00 AM-05:00 PM"
"https://www.bigotires.com","136 N Sandhill Blvd","136 N Sandhill Blvd","Mesquite","NV","89027","US","26900371","7023461188","Big O Tires, your auto service experts","36.806444","-114.064147","Mon:07:00 AM-06:00 PMTue:07:00 AM-06:00 PMWed:07:00 AM-06:00 PMThu:07:00 AM-06:00 PMFri:07:00 AM-06:00 PMSat:07:00 AM-06:00 PMSun: Closed"
"https://www.bigotires.com","1942 E Andy Devine Ave","1942 E Andy Devine Ave","Kingman","AZ","86401","US","26900021","9287532431","Big O Tires, your auto service experts","35.194047","-114.032026","Mon:08:00 AM-05:30 PMTue:08:00 AM-05:30 PMWed:08:00 AM-05:30 PMThu:08:00 AM-05:30 PMFri:08:00 AM-05:30 PMSat:08:00 AM-12:00 AMSun: Closed9/2: Closed"
"https://www.bigotires.com","949 W Broadway St","949 W Broadway St","Needles","CA","92363","US","26900138","7603263885","Big O Tires, your auto service experts","34.839371","-114.606822","Mon:07:00 AM-05:00 PMTue:07:00 AM-05:00 PMWed:07:00 AM-05:00 PMThu:07:00 AM-05:00 PMFri:07:00 AM-05:00 PMSat:08:00 AM-02:00 PMSun: Closed"
"https://www.bigotires.com","3808 Isleta Blvd SW","3808 Isleta Blvd SW","Albuquerque","NM","87105","US","26900386","5058775644","Big O Tires, your auto service experts","35.02052","-106.682487","Mon:08:00 AM-06:00 PMTue:08:00 AM-06:00 PMWed:08:00 AM-06:00 PMThu:08:00 AM-06:00 PMFri:08:00 AM-06:00 PMSat:08:00 AM-05:00 PMSun: Closed"
"https://www.bigotires.com","6519 Menaul Blvd NE","6519 Menaul Blvd NE","Albuquerque","NM","87110","US","26900393","5058888584","Big O Tires, your auto service experts","35.109492","-106.571263","Mon:07:00 AM-06:00 PMTue:07:00 AM-06:00 PMWed:07:00 AM-06:00 PMThu:07:00 AM-06:00 PMFri:07:00 AM-06:00 PMSat:07:00 AM-05:00 PMSun: Closed9/2: Closed"
"https://www.bigotires.com","1141 Juan Tabo Blvd NE","1141 Juan Tabo Blvd NE","Albuquerque","NM","87112","US","26900395","5052932967","Big O Tires, your auto service experts","35.091884","-106.515618","Mon:07:00 AM-06:00 PMTue:07:00 AM-06:00 PMWed:07:00 AM-06:00 PMThu:07:00 AM-06:00 PMFri:07:00 AM-06:00 PMSat:07:00 AM-05:00 PMSun: Closed9/2: Closed"
"https://www.bigotires.com","1610 Rio Rancho Dr SE","1610 Rio Rancho Dr SE","Rio Rancho","NM","87124","US","26900399","5058922664","Big O Tires, your auto service experts","35.233636","-106.657817","Mon:07:00 AM-06:00 PMTue:07:00 AM-06:00 PMWed:07:00 AM-06:00 PMThu:07:00 AM-06:00 PMFri:07:00 AM-06:00 PMSat:07:00 AM-05:00 PMSun: Closed9/2: Closed"
"https://www.bigotires.com","965 W Highway 550","965 W Highway 550","Bernalillo","NM","87004","US","26900400","5058670016","Big O Tires, your auto service experts","35.324444","-106.563283","Mon:07:00 AM-06:00 PMTue:07:00 AM-06:00 PMWed:07:00 AM-06:00 PMThu: ClosedFri:07:00 AM-06:00 PMSat:07:00 AM-05:00 PMSun: Closed9/2: Closed"
"https://www.bigotires.com","1820 Main St NW","1820 Main St NW","Los Lunas","NM","87031","US","26900396","5055654800","Big O Tires, your auto service experts","34.814501","-106.755348","Mon:07:00 AM-06:00 PMTue:07:00 AM-06:00 PMWed:07:00 AM-06:00 PMThu:07:00 AM-06:00 PMFri:07:00 AM-06:00 PMSat:07:00 AM-05:00 PMSun: Closed9/2: Closed"
"https://www.bigotires.com","3153 Cerrillos Rd","3153 Cerrillos Rd","Santa Fe","NM","87507","US","26900392","5054242220","Big O Tires, your auto service experts","35.65283","-105.996849","Mon:07:00 AM-06:00 PMTue:07:00 AM-06:00 PMWed:07:00 AM-06:00 PMThu:07:00 AM-06:00 PMFri:07:00 AM-06:00 PMSat:07:00 AM-05:00 PMSun: Closed9/2: Closed"
"https://www.bigotires.com","1820 1/2 7TH ST","1820 1/2 7TH ST","LAS VEGAS","NM","87701","US","27700002","505  426 1506","Big O Tires, your auto service experts","35.61072","-105.223435","Mon:08:00 AM-06:00 PMTue:08:00 AM-06:00 PMWed:08:00 AM-06:00 PMThu:08:00 AM-06:00 PMFri:08:00 AM-06:00 PMSat:08:00 AM-05:00 PMSun: Closed"
"https://www.bigotires.com","3716 S 6th Av","3716 S 6th Av","Tucson","AZ","85713","US","26900065","5206240680","Big O Tires, your auto service experts","32.17913","-110.968642","Mon:07:30 AM-06:00 PMTue:07:30 AM-06:00 PMWed:07:30 AM-06:00 PMThu:07:30 AM-06:00 PMFri:07:30 AM-06:00 PMSat:07:30 AM-06:00 PMSun: Closed"
"https://www.bigotires.com","2445 N Silverbell Rd","2445 N Silverbell Rd","Tucson","AZ","85745","US","26900052","520  792 9000","Big O Tires, your auto service experts","32.251586","-111.014583","Mon:07:00 AM-06:00 PMTue:07:00 AM-06:00 PMWed:07:00 AM-06:00 PMThu:07:00 AM-06:00 PMFri:07:00 AM-06:00 PMSat:07:00 AM-04:00 PMSun:09:00 AM-03:00 PM"
"https://www.bigotires.com","1502 S Alvernon Way","1502 S Alvernon Way","Tucson","AZ","85711","US","26900017","5203252656","Big O Tires, your auto service experts","32.203622","-110.90993","Mon:07:30 AM-05:30 PMTue:07:30 AM-05:30 PMWed:07:30 AM-05:30 PMThu:07:30 AM-05:30 PMFri:07:30 AM-05:30 PMSat:07:00 AM-04:00 PMSun: Closed"
"https://www.bigotires.com","1815 W Valencia Rd","1815 W Valencia Rd","Tucson","AZ","85746","US","26900029","520  294 6419","Big O Tires, your auto service experts","32.133283","-111.005469","Mon:07:30 AM-05:30 PMTue:07:30 AM-05:30 PMWed:07:30 AM-05:30 PMThu:07:30 AM-05:30 PMFri:07:30 AM-05:30 PMSat:07:30 AM-03:30 PMSun: Closed"
"https://www.bigotires.com","1669 N Wilmot Rd","1669 N Wilmot Rd","Tucson","AZ","85712","US","26900018","5208861251","Big O Tires, your auto service experts","32.242665","-110.858342","Mon:07:30 AM-05:30 PMTue:07:30 AM-05:30 PMWed:07:30 AM-05:30 PMThu:07:30 AM-05:30 PMFri:07:30 AM-05:30 PMSat:07:00 AM-04:00 PMSun: Closed"
"https://www.bigotires.com","7140 E Golf Links Rd","7140 E Golf Links Rd","Tucson","AZ","85730","US","26900061","520  745 0271","Big O Tires, your auto service experts","32.192031","-110.839817","Mon:07:30 AM-05:30 PMTue:07:30 AM-05:30 PMWed:07:30 AM-05:30 PMThu:07:30 AM-05:30 PMFri:07:30 AM-05:30 PMSat:07:30 AM-04:00 PMSun: Closed"
"https://www.bigotires.com","10061 E Old Vail Rd","10061 E Old Vail Rd","Tucson","AZ","85747","US","26900069","520 203 8031","Big O Tires, your auto service experts","32.08989","-110.77795","Mon:07:00 AM-06:00 PMTue:07:00 AM-06:00 PMWed:07:00 AM-06:00 PMThu:07:00 AM-06:00 PMFri:07:00 AM-06:00 PMSat:08:00 AM-05:00 PMSun:09:00 AM-03:00 PM"
"https://www.bigotires.com","1976 N La Canoa","1976 N La Canoa","Green Valley","AZ","85614","US","26900016","520  625 9414","Big O Tires, your auto service experts","31.899212","-110.990728","Mon:07:30 AM-05:30 PMTue:07:30 AM-05:30 PMWed:07:30 AM-05:30 PMThu:07:30 AM-05:30 PMFri:07:30 AM-05:30 PMSat:08:00 AM-01:00 PMSun: Closed"
"https://www.bigotires.com","1988 S Highway 92","1988 S Highway 92","Sierra Vista","AZ","85635","US","26900062","520 224 3790","Big O Tires, your auto service experts","31.533225","-110.258104","Mon:07:30 AM-06:00 PMTue:07:30 AM-06:00 PMWed:07:30 AM-06:00 PMThu:07:30 AM-06:00 PMFri:07:30 AM-06:00 PMSat:08:00 AM-04:00 PMSun: Closed9/2: Closed"
"https://www.bigotires.com","1217 W Thatcher Blvd","1217 W Thatcher Blvd","Safford","AZ","85546","US","26900059","9284281140","Big O Tires, your auto service experts","32.834416","-109.722163","Mon:07:00 AM-05:30 PMTue:07:00 AM-05:30 PMWed:07:00 AM-05:30 PMThu:07:00 AM-05:30 PMFri:07:00 AM-05:30 PMSat:08:00 AM-02:00 PMSun: Closed"
"https://www.bigotires.com","85 Placerville Dr","85 Placerville Dr","Placerville","CA","95667","US","26900132","5306226956","Big O Tires, your auto service experts","38.724175","-120.834998","Mon:08:00 AM-06:00 PMTue:08:00 AM-06:00 PMWed:08:00 AM-06:00 PMThu:08:00 AM-06:00 PMFri:08:00 AM-06:00 PMSat:08:00 AM-06:00 PMSun: Closed"
"https://www.bigotires.com","3008 Olive Hwy","3008 Olive Hwy","Oroville","CA","95966","US","26900105","5305335141","Big O Tires, your auto service experts","39.502043","-121.538396","Mon:08:00 AM-05:00 PMTue:08:00 AM-05:00 PMWed:08:00 AM-05:00 PMThu:08:00 AM-05:00 PMFri:08:00 AM-05:00 PMSat:08:00 AM-03:00 PMSun: Closed"
"https://www.bigotires.com","5995 Skyway","5995 Skyway","Paradise","CA","95969","US","26900097","5308721385","Big O Tires, your auto service experts","39.753884","-121.629077","Mon:08:00 AM-06:00 PMTue:08:00 AM-06:00 PMWed:08:00 AM-06:00 PMThu:08:00 AM-06:00 PMFri:08:00 AM-06:00 PMSat:08:00 AM-04:00 PMSun: Closed"
"https://www.bigotires.com","2001 Esplanade","2001 Esplanade","Chico","CA","95926","US","26900121","5307742475","Big O Tires, your auto service experts","39.747288","-121.853252","Mon:08:00 AM-05:00 PMTue:08:00 AM-05:00 PMWed:08:00 AM-05:00 PMThu:08:00 AM-05:00 PMFri:08:00 AM-05:00 PMSat:08:00 AM-03:00 PMSun: Closed"
"https://www.bigotires.com","700 NW Englewood Rd","700 NW Englewood Rd","Kansas City","MO","64118","US","26900354","8164554030","Big O Tires, your auto service experts","39.197364","-94.589111","Mon:07:00 AM-06:00 PMTue:07:00 AM-06:00 PMWed:07:00 AM-06:00 PMThu:07:00 AM-06:00 PMFri:07:00 AM-06:00 PMSat:07:00 AM-06:00 PMSun:09:00 AM-05:00 PM"
"https://www.bigotires.com","7622 Wornall Rd","7622 Wornall Rd","Kansas City","MO","64114","US","26900361","8164443081","Big O Tires, your auto service experts","38.989855","-94.594504","Mon:07:00 AM-06:00 PMTue:07:00 AM-06:00 PMWed:07:00 AM-06:00 PMThu:07:00 AM-06:00 PMFri:07:00 AM-06:00 PMSat:07:00 AM-06:00 PMSun:09:00 AM-05:00 PM"
"https://www.bigotires.com","8400 Nieman Rd","8400 Nieman Rd","Lenexa","KS","66214","US","26900280","9134923770","Big O Tires, your auto service experts","38.975415","-94.716564","Mon:07:00 AM-06:00 PMTue:07:00 AM-06:00 PMWed:07:00 AM-06:00 PMThu:07:00 AM-06:00 PMFri:07:00 AM-06:00 PMSat:07:00 AM-06:00 PMSun:09:00 AM-05:00 PM"
"https://www.bigotires.com","9501 NE 83rd Ter","9501 NE 83rd Ter","Kansas City","MO","64158","US","26900358","8167928230","Big O Tires, your auto service experts","39.243554","-94.463489","Mon:07:00 AM-06:00 PMTue:07:00 AM-06:00 PMWed:07:00 AM-06:00 PMThu:07:00 AM-06:00 PMFri:07:00 AM-06:00 PMSat:07:00 AM-06:00 PMSun:09:00 AM-05:00 PM"
"https://www.bigotires.com","8820 Skyview Ave","8820 Skyview Ave","Kansas City","MO","64154","US","26900360","8166563650","Big O Tires, your auto service experts","39.259204","-94.65373","Mon:07:00 AM-06:00 PMTue:07:00 AM-06:00 PMWed:07:00 AM-06:00 PMThu:07:00 AM-06:00 PMFri:07:00 AM-06:00 PMSat:07:00 AM-06:00 PMSun:09:00 AM-05:00 PM"
"https://www.bigotires.com","4011 S Bolger Rd","4011 S Bolger Rd","Independence","MO","64055","US","26900353","8164780970","Big O Tires, your auto service experts","39.0455","-94.364585","Mon:07:00 AM-06:00 PMTue:07:00 AM-06:00 PMWed:07:00 AM-06:00 PMThu:07:00 AM-06:00 PMFri:07:00 AM-06:00 PMSat:07:00 AM-06:00 PMSun:09:00 AM-05:00 PM"
"https://www.bigotires.com","7333 W 119th St","7333 W 119th St","Overland Park","KS","66213","US","26900281","9133385030","Big O Tires, your auto service experts","38.9125","-94.6705","Mon:07:00 AM-06:00 PMTue:07:00 AM-06:00 PMWed:07:00 AM-06:00 PMThu:07:00 AM-06:00 PMFri:07:00 AM-06:00 PMSat:07:00 AM-06:00 PMSun:09:00 AM-05:00 PM"
"https://www.bigotires.com","1923 N 110th St","1923 N 110th St","Kansas City","KS","66111","US","26900285","9137885200","Big O Tires, your auto service experts","39.1268","-94.835","Mon:07:00 AM-06:00 PMTue:07:00 AM-06:00 PMWed:07:00 AM-06:00 PMThu:07:00 AM-06:00 PMFri:07:00 AM-06:00 PMSat:07:00 AM-06:00 PMSun:09:00 AM-05:00 PM"
"https://www.bigotires.com","13521 Madison Ave","13521 Madison Ave","Kansas City","MO","64145","US","26900356","8169418888","Big O Tires, your auto service experts","38.882701","-94.605674","Mon:07:00 AM-06:00 PMTue:07:00 AM-06:00 PMWed:07:00 AM-06:00 PMThu:07:00 AM-06:00 PMFri:07:00 AM-06:00 PMSat:07:00 AM-06:00 PMSun:09:00 AM-05:00 PM"
